stop_id,stop_name,stop_lat,stop_lon,date_opened,date_opened_min,date_opened_max,date_precision,date_closed
ITHS00001,Abano,45.355199,11.811533,18760101,,18760101,open_by_1876,
ITHS00002,Abbasanta,40.128801,8.817733,18850101,18770101,18850101,window_1877_1885,
ITHS00003,Abbiategrasso,45.400631,8.921305,18760101,,18760101,open_by_1876,
ITHS00004,Acate (Biscari),36.996592,14.42545,18990101,18860101,18990101,window_1886_1899,
ITHS00005,Acciano,42.175994,13.711345,18760101,,18760101,open_by_1876,
ITHS00006,Acerenza,40.7921210,15.9365680,19020101,19020101,19020101,exact,
ITHS00007,Acerra,40.939066,14.372243,18760101,,18760101,open_by_1876,
ITHS00008,Aciano,42.175994,13.711345,18850101,18770101,18850101,window_1877_1885,
ITHS00009,Acicastello,37.5568665,15.1408160,18760101,,18760101,open_by_1876,
ITHS00010,Acireale,37.600514,15.163697,18760101,,18760101,open_by_1876,
ITHS00011,Acqua dei Corsari,38.0916111,13.4306847,19100101,19100101,19100101,exact,
ITHS00012,Acqualagna,43.6258843,12.6759738,18990101,18860101,18990101,window_1886_1899,
ITHS00013,Acquanegra,45.9074738,8.6147254,18760101,,18760101,open_by_1876,
ITHS00014,Acquapendente,42.7439961,11.8649880,19140101,19140101,19140101,exact,
ITHS00015,Acquappesa,39.48648,15.955992,18990101,18860101,18990101,window_1886_1899,
ITHS00016,Acquasparta,42.703760097817,12.540770468382,19100101,19100101,19100101,exact,
ITHS00018,Acquaviva,43.1142673,11.8639999,18760101,,18760101,open_by_1876,
ITHS00019,Acquaviva delle Fonti,40.892806,16.839826,18850101,18770101,18850101,window_1877_1885,
ITHS00020,Acquaviva Platani,37.5719991,13.7028911,18850101,18770101,18850101,window_1877_1885,
ITHS00022,Acqui,44.67407,8.474482,18760101,,18760101,open_by_1876,
ITHS00023,Acqui terme,44.67407,8.474482,19310101,19150101,19310101,window_1915_1931,
ITHS00025,Adria,45.06058,12.054228,18850101,18770101,18850101,window_1877_1885,
ITHS00026,Affi,45.5586903,10.7767991,18990101,18860101,18990101,window_1886_1899,
ITHS00027,Affori(Milano),45.5213005,9.1673995,18990101,18860101,18990101,window_1886_1899,
ITHS00028,Agira,37.6561510,14.5215750,18760101,,18760101,open_by_1876,
ITHS00029,Agliana-Montale,43.9128778,11.0084102,19020101,19020101,19020101,exact,
ITHS00031,Agnone,41.8095612,14.3770463,18760101,,18760101,open_by_1876,
ITHS00032,Agosta,45.73407,7.322424,18990101,18770101,18990101,window_1877_1899,
ITHS00033,Agrigento Centrale,37.309051,13.584412,19310101,19150101,19310101,window_1915_1931,
ITHS00034,Agropoli,40.3469050,14.9965530,18850101,18770101,18850101,window_1877_1885,
ITHS00035,Agropoli Castellabate,40.351521,15.002053,19310101,19150101,19310101,window_1915_1931,
ITHS00036,Aielli,42.061963889742,13.581576979393,18990101,18860101,18990101,window_1886_1899,
ITHS00037,Airasca,44.928093,7.483536,18760101,,18760101,open_by_1876,
ITHS00038,Airuno,45.754086,9.422066,18850101,18770101,18850101,window_1877_1885,
ITHS00040,Ala,45.760087,10.996775,18760101,,18760101,open_by_1876,
ITHS00041,Alanno,42.287185,14.019595,18760101,,18760101,open_by_1876,
ITHS00042,Alano Fener-Valdobbadiene,45.90229,11.944546,18990101,18860101,18990101,window_1886_1899,
ITHS00043,Alassio,44.007889,8.17112,18760101,,18760101,open_by_1876,
ITHS00044,Alba,44.697713,8.030629,18760101,,18760101,open_by_1876,
ITHS00045,Albacina,43.345686,12.986501,18760101,,18760101,open_by_1876,
ITHS00046,Albanella,40.4784224,15.1166081,18850101,18770101,18850101,window_1877_1885,
ITHS00047,Albano,44.4963925,7.7198804,18760101,,18760101,open_by_1876,
ITHS00048,Albano di Lucania,40.574707,16.021247,18850101,18770101,18850101,window_1877_1885,
ITHS00049,Albano Laziale,41.72632,12.658056,18990101,18860101,18990101,window_1886_1899,
ITHS00050,Albarè,44.6899327,10.9665756,18990101,18860101,18990101,window_1886_1899,
ITHS00051,Albaredo,45.670265,12.015104,18760101,,18760101,open_by_1876,
ITHS00052,Albate Camerlata,45.7768540,9.0730979,18990101,18860101,18990101,window_1886_1899,
ITHS00053,Albate Trecallo,45.777391,9.095752,18990101,18860101,18990101,window_1886_1899,
ITHS00055,Albenga,44.04722,8.221663,18760101,,18760101,open_by_1876,
ITHS00056,Alberese,42.634158,11.1352,18990101,18860101,18990101,window_1886_1899,
ITHS00057,Alberobello,0.0,4.5112561156128,19030101,19030101,19030101,exact,
ITHS00059,Albino,45.7606610,9.7969489,18760101,,18760101,open_by_1876,
ITHS00060,Albissola,44.33469,8.512092,18760101,,18760101,open_by_1876,
ITHS00062,Albizzate,45.7239432,8.8031311,18760101,,18760101,open_by_1876,
ITHS00063,Albonese,45.297785,8.714601,19140101,19140101,19140101,exact,
ITHS00064,Albuzzano,45.172504,9.261624,18990101,18860101,18990101,window_1886_1899,
ITHS00066,Alcamo Diramazione,37.978894,12.915916,19310101,19150101,19310101,window_1915_1931,
ITHS00067,Alcantara,37.82145,15.251158,18990101,18860101,18990101,window_1886_1899,
ITHS00068,Alessandria,44.909091,8.606498,18760101,,18760101,open_by_1876,
ITHS00069,Alezio,0.0,4.5112561156128,18990101,18860101,18990101,window_1886_1899,
ITHS00070,Alfadena Scontrone,41.738222,14.044662,18990101,18860101,18990101,window_1886_1899,
ITHS00071,Alfonsine,44.512364,12.039155,18990101,18860101,18990101,window_1886_1899,
ITHS00072,Alghero,40.5587291,8.3153206,18990101,18860101,18990101,window_1886_1899,
ITHS00073,Alì,38.013952,15.435184,18760101,,18760101,open_by_1876,
ITHS00074,Ali,38.013952,15.435184,18850101,18770101,18850101,window_1877_1885,
ITHS00075,Alice Belcolle,44.722636,8.440076,18990101,18860101,18990101,window_1886_1899,
ITHS00077,Allerona,42.8120330,11.9730530,18850101,18770101,18850101,window_1877_1885,
ITHS00078,Alpignano,45.091077,7.523745,18760101,,18760101,open_by_1876,
ITHS00079,Alseno,44.8969352,9.9653168,18760101,,18760101,open_by_1876,
ITHS00080,Altamura,40.837666,16.551739,18990101,18860101,18990101,window_1886_1899,
ITHS00081,Altare,44.336169,8.332753,19000101,19000101,19000101,exact,
ITHS00082,Altavilla,39.3331586,16.3127324,18760101,,18760101,open_by_1876,
ITHS00083,Altavilla Milicia,38.048392,13.554421,18850101,18770101,18850101,window_1877_1885,
ITHS00084,Altopascio,43.817418,10.672754,18760101,,18760101,open_by_1876,
ITHS00085,Alviano,42.591917,12.259583,18760101,,18760101,open_by_1876,
ITHS00087,Alzo,45.7926889,8.3787612,18990101,18860101,18990101,window_1886_1899,
ITHS00088,Amandola,42.9971421,13.3541827,19090101,19090101,19090101,exact,
ITHS00089,Amantea,39.134353,16.068448,18990101,18860101,18990101,window_1886_1899,
ITHS00090,Amaro,46.3740306,13.0953599,19100101,19100101,19100101,exact,
ITHS00091,Ambivere-Mapello,45.722163,9.550444,19020101,19020101,19020101,exact,
ITHS00092,Ambria,45.8075745,9.6816763,19070101,19070101,19070101,exact,
ITHS00093,Amendolara,39.9524383,16.5822838,18760101,,18760101,open_by_1876,
ITHS00094,Amendolea,41.518025,15.732569,18760101,,18760101,open_by_1876,
ITHS00095,Amorosi,41.2029177,14.4616360,18760101,,18760101,open_by_1876,
ITHS00096,Anagni,41.7447015,13.1526343,18760101,,18760101,open_by_1876,
ITHS00097,Ancona,43.607734,13.497665,18760101,,18760101,open_by_1876,
ITHS00098,Andora,43.961799283719,8.1274611204309,18850101,18770101,18850101,window_1877_1885,
ITHS00100,Anela,40.4417600,9.0574270,18990101,18860101,18990101,window_1886_1899,
ITHS00101,Anghiari,43.5409662,12.0545815,18990101,18860101,18990101,window_1886_1899,
ITHS00103,Angri,40.746404,14.575366,18760101,,18760101,open_by_1876,
ITHS00104,Anguillara,42.068133,12.304978,18990101,18860101,18990101,window_1886_1899,
ITHS00105,Annone,45.8030930,9.3307832,18760101,,18760101,open_by_1876,
ITHS00108,Antignano,43.492482,10.328827,18990101,18860101,18990101,window_1886_1899,
ITHS00110,Antrodoco Borgo Velino,42.415393,13.076193,18850101,18770101,18850101,window_1877_1885,
ITHS00111,Anulù,39.8509838,9.3773198,19110101,19110101,19110101,exact,
ITHS00112,Anversa-Scanno,42.0174028,13.8357271,18990101,18860101,18990101,window_1886_1899,
ITHS00113,Anzano,45.9856969,12.3305805,18990101,18860101,18990101,window_1886_1899,
ITHS00114,Anzio,41.4532,12.633205,18850101,18770101,18850101,window_1877_1885,
ITHS00115,Anzola,44.5466843,11.1933259,18760101,,18760101,open_by_1876,
ITHS00116,Anzola dell'Emilia,44.542245701088,11.195379444623,18850101,18770101,18850101,window_1877_1885,
ITHS00117,Aosta,45.73407,7.322424,18990101,18860101,18990101,window_1886_1899,
ITHS00118,Apice,41.1184185,14.9313689,18760101,,18760101,open_by_1876,
ITHS00121,Apricena,41.77664,15.387809,18760101,,18760101,open_by_1876,
ITHS00122,Aquila,42.3489203,13.3979672,18760101,,18760101,open_by_1876,
ITHS00123,Aquileia,45.7696144,13.3697982,19110101,19110101,19110101,exact,
ITHS00124,Aquino,41.4911190,13.7047100,18760101,,18760101,open_by_1876,
ITHS00125,Aradeo,40.1309220,18.1296250,19140101,19140101,19140101,exact,
ITHS00126,Aragona,37.4031989,13.6179477,18850101,18770101,18850101,window_1877_1885,
ITHS00127,Aragona Caldare,37.381097,13.636837,18990101,18860101,18990101,window_1886_1899,
ITHS00129,Arbatax,39.9360947,9.7070731,19090101,19090101,19090101,exact,
ITHS00130,Arbia,43.294393,11.406225,18760101,,18760101,open_by_1876,
ITHS00131,Arbizzano,45.4936058,10.9392096,19050101,19050101,19050101,exact,
ITHS00132,Arborio,45.4921222,8.3739137,18990101,18770101,18990101,window_1877_1899,
ITHS00133,Arce,41.583695,13.571848,18990101,18860101,18990101,window_1886_1899,
ITHS00134,Arcene,45.577162,9.606652,18990101,18860101,18990101,window_1886_1899,
ITHS00135,Archi Reggio,38.1507065,15.6589903,18850101,18770101,18850101,window_1877_1885,
ITHS00136,Arcisate Brenno,45.8585535,8.8631473,18990101,18860101,18990101,window_1886_1899,
ITHS00137,Arco,45.9318708,10.9171966,18990101,18860101,18990101,window_1886_1899,
ITHS00138,Arco Felice,40.8328497,14.1015092,18990101,18860101,18990101,window_1886_1899,
ITHS00139,Arcola,44.118651,9.914649,18760101,,18760101,open_by_1876,
ITHS00140,Arcore,45.623493,9.322798,18760101,,18760101,open_by_1876,
ITHS00141,Ardara,40.632139,8.818996,18760101,,18760101,open_by_1876,
ITHS00142,Ardenno,46.1715712,9.6519439,18850101,18770101,18850101,window_1877_1885,
ITHS00144,Ardore,38.175698,16.207311,18760101,,18760101,open_by_1876,
ITHS00145,Arena Po,45.082065,9.360394,18760101,,18760101,open_by_1876,
ITHS00146,Arenzano,44.403089,8.678322,18760101,,18760101,open_by_1876,
ITHS00147,Arezzo,43.461725,11.874189,18760101,,18760101,open_by_1876,
ITHS00148,Argenta,44.616867,11.841267,18850101,18770101,18850101,window_1877_1885,
ITHS00149,Ariano,40.6572110,15.0230500,18760101,,18760101,open_by_1876,
ITHS00150,Ariano Irpino,41.181883,15.117508,19310101,19150101,19310101,window_1915_1931,
ITHS00151,Arma di taggia,43.8310037,7.8490829,19140101,19140101,19140101,exact,
ITHS00152,Armedola,45.6017674,11.6596853,18760101,,18760101,open_by_1876,
ITHS00154,Arona,45.755392,8.559075,18760101,,18760101,open_by_1876,
ITHS00155,Arosio,45.718372348914,9.2102687398483,18990101,18860101,18990101,window_1886_1899,
ITHS00156,Arpaia-Airola-Sant'Agata,41.0399031,14.5548047,18990101,18860101,18990101,window_1886_1899,
ITHS00157,Arpaise-Ceppaloni,41.0615225,14.7061252,19120101,19120101,19120101,exact,
ITHS00158,Arpino,41.648296,13.59959,18990101,18860101,18990101,window_1886_1899,
ITHS00159,Arqua,45.006465,11.748518,18850101,18770101,18850101,window_1877_1885,
ITHS00160,ArquÃ,45.006465,11.748518,18760101,,18760101,open_by_1876,
ITHS00161,Arquata del Tronto,42.7723609,13.2965826,18990101,18860101,18990101,window_1886_1899,
ITHS00162,Arquata Scrivia,44.692533,8.885342,19000101,19000101,19000101,exact,
ITHS00163,Arsiero,45.8461561,11.3017652,18990101,18860101,18990101,window_1886_1899,
ITHS00164,Arsoli,42.045852,13.013064,18990101,18860101,18990101,window_1886_1899,
ITHS00165,Artegna,46.23115,13.162328,18990101,18860101,18990101,window_1886_1899,
ITHS00166,Artena,46.23115,13.162328,18990101,18860101,18990101,window_1886_1899,
ITHS00167,Artogne-Gianico,45.858661110267,10.158959965862,19110101,19110101,19110101,exact,
ITHS00168,Arzana,39.9194634,9.5270001,18990101,18860101,18990101,window_1886_1899,
ITHS00169,Ascea,40.140955,15.172626,18990101,18860101,18990101,window_1886_1899,
ITHS00170,Asciano,43.235245,11.579237,18760101,,18760101,open_by_1876,
ITHS00171,Ascoli,42.8834204,13.5395930,18760101,,18760101,open_by_1876,
ITHS00172,Ascoli Piceno,42.855474,13.587939,18990101,18860101,18990101,window_1886_1899,
ITHS00173,Ascoli Satriano,41.219859,15.547828,18850101,18770101,18850101,window_1877_1885,
ITHS00174,Asiago,45.9133079,11.5025191,18990101,18860101,18990101,window_1886_1899,
ITHS00175,Asigliano,45.3045125,11.4462660,18760101,,18760101,open_by_1876,
ITHS00176,Asola,45.220454,10.402313,18990101,18860101,18990101,window_1886_1899,
ITHS00177,Assemini,39.287603,8.997936,18760101,,18760101,open_by_1876,
ITHS00178,Assisi,43.058921,12.585304,18760101,,18760101,open_by_1876,
ITHS00179,Assoro,37.5985688,14.4307422,18760101,,18760101,open_by_1876,
ITHS00180,Asti,44.89479,8.208112,18760101,,18760101,open_by_1876,
ITHS00181,Atena,40.456676,15.536094,18990101,18860101,18990101,window_1886_1899,
ITHS00182,Atessa,42.0718059,14.4489025,19140101,19140101,19140101,exact,
ITHS00183,Atina,41.6201990,13.7999785,19110101,19110101,19110101,exact,
ITHS00185,Attigliano,42.5143337,12.2925076,18760101,,18760101,open_by_1876,
ITHS00186,Auer Ora,46.3640563,11.3096189,18990101,18860101,18990101,window_1886_1899,
ITHS00187,Augusta,37.24334,15.218628,18760101,,18760101,open_by_1876,
ITHS00188,Auletta,40.534934,15.426706,18990101,18860101,18990101,window_1886_1899,
ITHS00189,Aulla Lunigiana,44.210555,9.970015,18990101,18860101,18990101,window_1886_1899,
ITHS00191,Aurisina/Nabrezina,45.7504341,13.6708659,19310101,19150101,19310101,window_1915_1931,
ITHS00192,Avegno,44.3913363,9.1563156,19110101,19110101,19110101,exact,
ITHS00193,Avella Sperone,40.9551883,14.6025649,18990101,18860101,18990101,window_1886_1899,
ITHS00194,Avellino,40.921612,14.820586,18990101,18860101,18990101,window_1886_1899,
ITHS00195,Avenza,44.0470099,10.0622156,18850101,18770101,18850101,window_1877_1885,
ITHS00196,Aversa,40.973323,14.218578,18760101,,18760101,open_by_1876,
ITHS00197,Avetrana,40.3499423,17.7273737,19100101,19100101,19100101,exact,
ITHS00198,Avezzano,42.039495,13.426446,18990101,18860101,18990101,window_1886_1899,
ITHS00199,Aviano,46.064362,12.590686,18990101,18860101,18990101,window_1886_1899,
ITHS00200,Avigliana,45.085276,7.401096,18760101,,18760101,open_by_1876,
ITHS00201,Avigliano Lucania,40.714667,15.785619,18990101,18860101,18990101,window_1886_1899,
ITHS00202,Avio,45.733892,10.955842,18760101,,18760101,open_by_1876,
ITHS00203,Avola,36.907434,15.125733,18990101,18860101,18990101,window_1886_1899,
ITHS00205,B.S.Martino,46.6887325,11.4167130,18760101,,18760101,open_by_1876,
ITHS00207,Badia,46.6101240,11.8934870,18760101,,18760101,open_by_1876,
ITHS00208,Badia Polesine,45.094439,11.484722,18850101,18770101,18850101,window_1877_1885,
ITHS00209,Badolato,38.572268,16.567646,18760101,,18760101,open_by_1876,
ITHS00210,Baggiovara,0.0,4.5112561156128,19030101,19030101,19030101,exact,
ITHS00211,Bagheria,38.089905,13.507215,18760101,,18760101,open_by_1876,
ITHS00212,Bagnacavallo,44.412138,11.969398,18760101,,18760101,open_by_1876,
ITHS00213,Bagnara,38.282695,15.800327,18990101,18860101,18990101,window_1886_1899,
ITHS00214,Bagnasco,44.303264,8.046132,18990101,18860101,18990101,window_1886_1899,
ITHS00215,Bagni di Lucca,44.003447,10.551631,18990101,18860101,18990101,window_1886_1899,
ITHS00216,Bagnolo del Salento,0.0,4.5112561156128,18990101,18860101,18990101,window_1886_1899,
ITHS00217,Bagnolo in Piano,0.0,4.5112561156128,18990101,18860101,18990101,window_1886_1899,
ITHS00218,Bagnolo Mella,45.428532,10.183617,18990101,18860101,18990101,window_1886_1899,
ITHS00219,Bagnoro,43.4291853,11.8899539,18990101,18860101,18990101,window_1886_1899,
ITHS00220,Baia,41.3004047,14.2513235,18990101,18770101,18990101,window_1877_1899,
ITHS00221,Baiano,-9.019375697908,4.5112471566161,18990101,18860101,18990101,window_1886_1899,
ITHS00222,Balangero,45.265633,7.519423,18760101,,18760101,open_by_1876,
ITHS00223,Baldichieri,44.9062543,8.0907902,18760101,,18760101,open_by_1876,
ITHS00224,Balestrate,38.053364,13.007374,18850101,18770101,18850101,window_1877_1885,
ITHS00225,Balsorano,41.809427,13.556546,18990101,18860101,18990101,window_1886_1899,
ITHS00226,Balvano,40.6503150,15.5141610,18850101,18770101,18850101,window_1877_1885,
ITHS00227,Balzola,45.173985,8.402174,18760101,,18760101,open_by_1876,
ITHS00228,Bambina,37.7518171,12.4830007,18850101,18770101,18850101,window_1877_1885,
ITHS00229,Bandito,44.722075,7.819452,18850101,18770101,18850101,window_1877_1885,
ITHS00231,Baragiano,40.6797381,15.5939656,18850101,18770101,18850101,window_1877_1885,
ITHS00232,Baranello,41.5176,14.596314,18850101,18770101,18850101,window_1877_1885,
ITHS00233,Barasso-Comerio,45.835267676179,8.7510358198107,18990101,18860101,18990101,window_1886_1899,
ITHS00234,Barbania,45.2912520,7.6303170,18990101,18770101,18990101,window_1877_1899,
ITHS00235,Barbarano Romano,42.2498341,12.0673735,18990101,18860101,18990101,window_1886_1899,
ITHS00236,Barbianello,45.07263,9.204165,18990101,18860101,18990101,window_1886_1899,
ITHS00237,Barchessa,45.1448183,11.5604241,19120101,19120101,19120101,exact,
ITHS00238,Barco,0.0,4.5112561156128,18990101,18860101,18990101,window_1886_1899,
ITHS00239,Bardi,44.6322106,9.7312033,19110101,19110101,19110101,exact,
ITHS00240,Bardonecchia,45.076447,6.709959,18760101,,18760101,open_by_1876,
ITHS00241,Bare,46.1075785,9.1102062,19110101,19110101,19110101,exact,
ITHS00242,Baresa,45.5398022,10.2200214,19050101,19050101,19050101,exact,
ITHS00243,Barga Gallicano,44.068114,10.451938,19130101,19130101,19130101,exact,
ITHS00244,Barge,44.7298337,7.3333474,18990101,18860101,18990101,window_1886_1899,
ITHS00245,Bari,41.11774,16.869601,18760101,,18760101,open_by_1876,
ITHS00246,Bari Centrale,41.11774,16.869601,19310101,19150101,19310101,window_1915_1931,
ITHS00247,Bari Santo Spirito,41.1596056,16.7463287,18850101,18770101,18850101,window_1877_1885,
ITHS00248,Baricetta,45.060889,11.995348,18850101,18770101,18850101,window_1877_1885,
ITHS00249,Barigazzo,44.2652852,10.6511600,19110101,19110101,19110101,exact,
ITHS00250,Barile,40.943044,15.670959,18990101,18860101,18990101,window_1886_1899,
ITHS00251,Barletta,41.315227,16.278867,18760101,,18760101,open_by_1876,
ITHS00252,Barolo,44.6146791,7.9394434,19140101,19140101,19140101,exact,
ITHS00253,Baronissi,40.743779,14.77224,19030101,19030101,19030101,exact,
ITHS00254,Barra,40.8441873,14.3141516,18990101,18860101,18990101,window_1886_1899,
ITHS00255,Barrali,39.4752889,9.1012726,18990101,18860101,18990101,window_1886_1899,
ITHS00256,Baruchella,45.0665244,11.4509909,19120101,19120101,19120101,exact,
ITHS00257,Basaluzzo,44.7668579,8.7032344,18990101,18860101,18990101,window_1886_1899,
ITHS00258,Baschi,42.6702835,12.2161353,19120101,19120101,19120101,exact,
ITHS00259,Bassano,43.3206123,12.9454519,18760101,,18760101,open_by_1876,
ITHS00260,Bassano del Grappa,45.766697,11.741525,19310101,19150101,19310101,window_1915_1931,
ITHS00261,Bassano in Taverina,42.483551,12.333556,18850101,18770101,18850101,window_1877_1885,
ITHS00262,Bastia,43.07133,12.547735,18760101,,18760101,open_by_1876,
ITHS00263,Bastia Umbra,43.0677554,12.5495816,18850101,18770101,18850101,window_1877_1885,
ITHS00264,Bastiglia,44.7269690,10.9986000,18990101,18860101,18990101,window_1886_1899,
ITHS00265,Battaglia,45.291475,11.77838,18760101,,18760101,open_by_1876,
ITHS00266,Battaglia Terme,45.291475,11.77838,19310101,19150101,19310101,window_1915_1931,
ITHS00267,Battipaglia,40.605789,14.98324,18760101,,18760101,open_by_1876,
ITHS00268,Baucina,37.9254289,13.5377102,18990101,18770101,18990101,window_1877_1899,
ITHS00270,Bauladu Milis,40.020722,8.687123,18990101,18860101,18990101,window_1886_1899,
ITHS00271,Baura,44.8529113,11.7176110,19040101,19040101,19040101,exact,
ITHS00272,Baveno,45.909105,8.502121,19040101,19040101,19040101,exact,
ITHS00273,Bazzana,44.777094,8.401557,18990101,18860101,18990101,window_1886_1899,
ITHS00274,Bazzano,42.340089610396,13.418395630581,18990101,18860101,18990101,window_1886_1899,
ITHS00275,Beaulard,45.046495,6.759713,18760101,,18760101,open_by_1876,
ITHS00276,Beffi,42.197341,13.660759,18760101,,18760101,open_by_1876,
ITHS00277,Beinette,44.36782,7.644884,18990101,18860101,18990101,window_1886_1899,
ITHS00278,Belgiojoso,45.16456,9.316875,18850101,18770101,18850101,window_1877_1885,
ITHS00279,Belgirate,45.843337,8.570821,19060101,19060101,19060101,exact,
ITHS00280,Bella Muro,40.700914,15.542936,18850101,18770101,18850101,window_1877_1885,
ITHS00281,Bellano Tartavale Terme,46.039448,9.302776,18990101,18860101,18990101,window_1886_1899,
ITHS00282,Bellante,42.7418470,13.8101950,18850101,18770101,18850101,window_1877_1885,
ITHS00283,Bellaria,44.150249,12.461168,18990101,18860101,18990101,window_1886_1899,
ITHS00284,Bellavista,40.517077,17.176892,19050101,19050101,19050101,exact,
ITHS00285,Bellinzago,45.566681,8.627652,18850101,18770101,18850101,window_1877_1885,
ITHS00287,Bellisio-Solfare,43.520379,12.823977,18990101,18860101,18990101,window_1886_1899,
ITHS00288,Belluno,46.141594,12.209703,18990101,18860101,18990101,window_1886_1899,
ITHS00289,Belmonte-Calabro,39.164427,16.064515,18990101,18860101,18990101,window_1886_1899,
ITHS00290,Belvedere Marittimo,39.616549,15.853039,19040101,19040101,19040101,exact,
ITHS00291,Belvi-Aritzo,39.9609522,9.1826187,18990101,18860101,18990101,window_1886_1899,
ITHS00293,Benetutti,40.4564610,9.1688290,18990101,18860101,18990101,window_1886_1899,
ITHS00294,Benevento,41.141901,14.769998,18760101,,18760101,open_by_1876,
ITHS00295,Benevento Porta Rufina,41.123564,14.784315,18990101,18860101,18990101,window_1886_1899,
ITHS00296,Berchidda,40.772052,9.181312,18850101,18770101,18850101,window_1877_1885,
ITHS00297,Bergamasco,44.819891,8.461447,18760101,,18760101,open_by_1876,
ITHS00298,Bergamo,45.690271,9.675082,18760101,,18760101,open_by_1876,
ITHS00299,Bergeggi,44.2497350,8.4433530,18760101,,18760101,open_by_1876,
ITHS00300,Bernalda,40.397616,16.682281,18760101,,18760101,open_by_1876,
ITHS00303,Bertinoro,44.1486650,12.1342350,19140101,19140101,19140101,exact,
ITHS00305,Besana,45.702824,9.28288,19130101,19130101,19130101,exact,
ITHS00306,Besnate,45.695409,8.761072,18990101,18860101,18990101,window_1886_1899,
ITHS00307,Besozzo,45.842188,8.662997,18990101,18860101,18990101,window_1886_1899,
ITHS00309,Bettola,44.7793185,9.5775428,18850101,18770101,18850101,window_1877_1885,
ITHS00310,Beura-Cardezza,46.068341,8.289627,19050101,19050101,19050101,exact,
ITHS00311,Bevilacqua,45.230145,11.398643,18990101,18860101,18990101,window_1886_1899,
ITHS00312,Biancavilla,37.6462764,14.8614108,18990101,18860101,18990101,window_1886_1899,
ITHS00315,Bianzè,45.309488,8.115523,18760101,,18760101,open_by_1876,
ITHS00316,Bianzone,46.179383,10.112507,19030101,19030101,19030101,exact,
ITHS00317,Bibbiano,0.0,4.5112561156128,19120101,19120101,19120101,exact,
ITHS00318,Bibbiena,-9.019375697908,4.5112471566161,18990101,18860101,18990101,window_1886_1899,
ITHS00320,Bibiana,44.809941,7.285727,18850101,18770101,18850101,window_1877_1885,
ITHS00321,Bicocca,37.460617,15.044594,18760101,,18760101,open_by_1876,
ITHS00322,Biella,45.5669538,8.0869120,18760101,,18760101,open_by_1876,
ITHS00323,Biella San Paolo,45.557334,8.067541,19310101,19150101,19310101,window_1915_1931,
ITHS00324,Bifarera,37.8872338,13.3346343,18990101,18770101,18990101,window_1877_1899,
ITHS00327,Birori,40.2648596,8.8174739,18990101,18860101,18990101,window_1886_1899,
ITHS00328,Bisacquino,37.7054309,13.2587609,18990101,18860101,18990101,window_1886_1899,
ITHS00329,Bisceglie,41.235445,16.499484,18760101,,18760101,open_by_1876,
ITHS00330,Bisignano,39.5001974,16.2744614,18850101,18770101,18850101,window_1877_1885,
ITHS00331,Bistagno,44.659256,8.372057,18760101,,18760101,open_by_1876,
ITHS00332,Bisuschio-Viggiu,45.870658,8.887544,18990101,18860101,18990101,window_1886_1899,
ITHS00333,Bitetto,41.0414078,16.7486991,18760101,,18760101,open_by_1876,
ITHS00334,Bitonto,41.0497743,16.5728773,18990101,18860101,18990101,window_1886_1899,
ITHS00335,Bogliasco,44.379207,9.066042,18760101,,18760101,open_by_1876,
ITHS00336,Bojano,41.4826448,14.4723134,18850101,18770101,18850101,window_1877_1885,
ITHS00337,Bolgheri,43.244664,10.550548,19030101,19030101,19030101,exact,
ITHS00338,Bolladore,46.3257157,10.3212193,19080101,19080101,19080101,exact,
ITHS00339,Bollate,45.5496883,9.1186872,18990101,18860101,18990101,window_1886_1899,
ITHS00340,Bologna,44.50626,11.342267,18760101,,18760101,open_by_1876,
ITHS00341,Bologna Borgo Panigale,44.515024,11.284728,18990101,18860101,18990101,window_1886_1899,
ITHS00342,Bologna Centrale,44.50626,11.342267,18990101,18860101,18990101,window_1886_1899,
ITHS00343,Bologna Roveri,0.0,4.5112561156128,18990101,18860101,18990101,window_1886_1899,
ITHS00344,Bologna S.Vitale,44.496288032223,11.373073477635,18990101,18860101,18990101,window_1886_1899,
ITHS00345,Bolotana,40.3257570,8.9611270,18990101,18860101,18990101,window_1886_1899,
ITHS00346,Bolzaneto,44.4586793,8.9014681,18760101,,18760101,open_by_1876,
ITHS00347,Bolzano,46.496346,11.358556,18760101,,18760101,open_by_1876,
ITHS00348,Bolzano Bozen,46.6559455,11.2302129,19310101,19150101,19310101,window_1915_1931,
ITHS00349,Bolzano Novarese,45.759357,8.440754,19030101,19030101,19030101,exact,
ITHS00350,Bonassola,44.184867,9.582673,18760101,,18760101,open_by_1876,
ITHS00351,Bondeno,-9.019375697908,4.5112471566161,18990101,18860101,18990101,window_1886_1899,
ITHS00352,Bonefro,41.7045330,14.9333340,18850101,18770101,18850101,window_1877_1885,
ITHS00353,Bonferraro,45.185651,11.009247,18990101,18860101,18990101,window_1886_1899,
ITHS00354,Bongiovanni,44.3515985,7.7865708,19030101,19030101,19030101,exact,
ITHS00355,Bono,40.4168302,9.0299928,18990101,18860101,18990101,window_1886_1899,
ITHS00356,Bonorva,40.417763,8.760707,18850101,18770101,18850101,window_1877_1885,
ITHS00357,Borca,45.8588555,8.4103587,19140101,19140101,19140101,exact,
ITHS00358,Bordighera,43.778313,7.663504,18760101,,18760101,open_by_1876,
ITHS00359,Bordonaro,38.1756923,15.5145619,19130101,19130101,19130101,exact,
ITHS00360,Boretto,0.0,4.5112561156128,18850101,18770101,18850101,window_1877_1885,
ITHS00361,Borgaro,-9.019375697908,4.5112471566161,18760101,,18760101,open_by_1876,
ITHS00362,Borghetto,43.1868695,12.0239291,18760101,,18760101,open_by_1876,
ITHS00363,Borghetto Santo Spirito,44.109006,8.242346,18850101,18770101,18850101,window_1877_1885,
ITHS00364,Borgio Verezzi,44.157722,8.30908,18990101,18860101,18990101,window_1886_1899,
ITHS00365,Borgo a Buggiano,43.880724,10.730079,18760101,,18760101,open_by_1876,
ITHS00366,Borgo a Mozzano,43.977207,10.541285,18990101,18860101,18990101,window_1886_1899,
ITHS00367,Borgo Lavezzaro,45.318783,8.703242,18850101,18770101,18850101,window_1877_1885,
ITHS00368,Borgo Panigale,44.5194898,11.2761784,18760101,,18760101,open_by_1876,
ITHS00369,Borgo San Donnino,44.1813359,10.3108704,18850101,18770101,18850101,window_1877_1885,
ITHS00370,Borgo San Lorenzo,43.959822,11.380422,18990101,18860101,18990101,window_1886_1899,
ITHS00371,Borgo San Martino,45.087083,8.520661,18990101,18860101,18990101,window_1886_1899,
ITHS00372,Borgo Val di Taro,44.486522,9.781489,18990101,18860101,18990101,window_1886_1899,
ITHS00373,Borgo Valsugana centro,46.051182,11.453967,19310101,19150101,19310101,window_1915_1931,
ITHS00374,Borgo Vercelli,45.359252,8.461474,18850101,18770101,18850101,window_1877_1885,
ITHS00375,Borgoforte,45.050328,10.752388,18760101,,18760101,open_by_1876,
ITHS00376,Borgofranco d'Ivrea,45.5162562,7.8623579,18850101,18770101,18850101,window_1877_1885,
ITHS00377,Borgomanero,45.701054,8.468093,18760101,,18760101,open_by_1876,
ITHS00378,Borgonato,45.6207934,10.0162983,19130101,19130101,19130101,exact,
ITHS00379,Borgone,45.123191,7.236037,18760101,,18760101,open_by_1876,
ITHS00380,Borgoratto,44.835999,8.538182,18760101,,18760101,open_by_1876,
ITHS00381,Borgosatollo,45.4771826,10.2407303,18990101,18860101,18990101,window_1886_1899,
ITHS00382,Borgosesia,45.716798,8.28239,18850101,18770101,18850101,window_1877_1885,
ITHS00383,Borgoticino,45.691943,8.602483,18760101,,18760101,open_by_1876,
ITHS00384,Borore,40.218992,8.809535,18850101,18770101,18850101,window_1877_1885,
ITHS00385,Borromeo,45.2910865,7.3496687,19120101,19120101,19120101,exact,
ITHS00387,Bosa,40.2970061,8.4986123,18990101,18860101,18990101,window_1886_1899,
ITHS00388,Boschi Sant'anna,45.2061713,11.3715269,18990101,18860101,18990101,window_1886_1899,
ITHS00389,Bosco Redole,41.459299,14.587884,19030101,19030101,19030101,exact,
ITHS00390,Bosconero,45.267522,7.761787,18760101,,18760101,open_by_1876,
ITHS00391,Boscotrecase,40.7743100,14.4620360,19080101,19080101,19080101,exact,
ITHS00392,Botricello,38.933943,16.857433,18760101,,18760101,open_by_1876,
ITHS00394,Bova,37.9950670,15.9319010,18760101,,18760101,open_by_1876,
ITHS00395,Bovalino,38.149087,16.180584,18760101,,18760101,open_by_1876,
ITHS00396,Bovino,41.2499260,15.3412490,18760101,,18760101,open_by_1876,
ITHS00397,Bovino Deliceto,41.27835,15.369255,18850101,18770101,18850101,window_1877_1885,
ITHS00398,Bovisa,45.5022986,9.1653387,18850101,18770101,18850101,window_1877_1885,
ITHS00399,Bovisio-Mombello,45.6120111,9.1412647,18990101,18860101,18990101,window_1886_1899,
ITHS00400,Bovolone,45.254446,11.123862,18760101,,18760101,open_by_1876,
ITHS00402,Bozzolo,45.107246,10.472655,18760101,,18760101,open_by_1876,
ITHS00403,Bra,44.693556,7.848643,18760101,,18760101,open_by_1876,
ITHS00404,Bracciano,42.103667,12.173023,18990101,18860101,18990101,window_1886_1899,
ITHS00405,Branca,43.2740904,12.6801201,18990101,18860101,18990101,window_1886_1899,
ITHS00406,Brancaleone,37.965475,16.103301,18760101,,18760101,open_by_1876,
ITHS00407,Brandizzo,45.178915,7.841218,18760101,,18760101,open_by_1876,
ITHS00409,Breil sur Roya,43.890267,7.530915,19100101,19100101,19100101,exact,
ITHS00410,Brenna Alzate,45.754044,9.183312,18990101,18860101,18990101,window_1886_1899,
ITHS00411,Brenner Brennero,46.9659522,11.3218296,18990101,18860101,18990101,window_1886_1899,
ITHS00412,Breno,45.959216474527,10.305721323352,19020101,19020101,19020101,exact,
ITHS00414,Brescello,44.9012244,10.5157280,18850101,18770101,18850101,window_1877_1885,
ITHS00415,Brescia,45.532315,10.212828,18760101,,18760101,open_by_1876,
ITHS00416,Bressana Argine,45.072739,9.137038,18990101,18860101,18990101,window_1886_1899,
ITHS00417,Bressana Bottarone,45.086298,9.110602,18990101,18860101,18990101,window_1886_1899,
ITHS00418,Bresso,45.5372394,9.1889678,18990101,18860101,18990101,window_1886_1899,
ITHS00419,Briatico,38.725447,16.025765,18990101,18860101,18990101,window_1886_1899,
ITHS00420,Bricherasio,44.824336,7.307513,18850101,18770101,18850101,window_1877_1885,
ITHS00421,Brienza,40.4778488,15.6301506,18990101,18860101,18990101,window_1886_1899,
ITHS00422,Brindisi,40.634339,17.938978,18760101,,18760101,open_by_1876,
ITHS00423,Brindisi Montagna,40.611991,15.955795,18990101,18860101,18990101,window_1886_1899,
ITHS00424,Briona,45.538568,8.479541,18850101,18770101,18850101,window_1877_1885,
ITHS00425,Brisighella,44.220565,11.769757,18990101,18860101,18990101,window_1886_1899,
ITHS00426,Brixen Bressanone,46.7164130,11.6577920,19090101,19090101,19090101,exact,
ITHS00427,Brolo-Ficara,38.159204,14.830176,18990101,18860101,18990101,window_1886_1899,
ITHS00428,Broni,45.066263,9.258751,18760101,,18760101,open_by_1876,
ITHS00429,Bronte,37.7871598,14.8338448,18990101,18860101,18990101,window_1886_1899,
ITHS00430,Brozolo,45.121299,8.05893,19130101,19130101,19130101,exact,
ITHS00431,Brucoli,37.272883,15.186876,18760101,,18760101,open_by_1876,
ITHS00432,Brunate,45.8194702,9.0959895,19040101,19040101,19040101,exact,
ITHS00433,Bruneck Brunico,46.7963194,11.9355121,19310101,19150101,19310101,window_1915_1931,
ITHS00434,Bruno,44.797947,8.439639,18760101,,18760101,open_by_1876,
ITHS00435,Brusasco-Cavagnolo,45.1536874,8.0475209,19140101,19140101,19140101,exact,
ITHS00436,Brusciano,40.9232120,14.4239330,18990101,18860101,18990101,window_1886_1899,
ITHS00437,Bubbio,44.6636726,8.2951343,18990101,18770101,18990101,window_1877_1899,
ITHS00438,Buccheri,37.1264910,14.8503851,18990101,18860101,18990101,window_1886_1899,
ITHS00439,Buccheri,37.1264910,14.8503851,18990101,18770101,18990101,window_1877_1899,
ITHS00440,Buccino,40.6326259,15.3700696,18760101,,18760101,open_by_1876,
ITHS00441,Bucine,43.480478,11.617609,18760101,,18760101,open_by_1876,
ITHS00442,Budduso,40.5780640,9.2581290,18990101,18860101,18990101,window_1886_1899,
ITHS00443,Budrio,0.0,4.5112561156128,18990101,18860101,18990101,window_1886_1899,
ITHS00445,Bugnara,42.031166,13.862082,18990101,18860101,18990101,window_1886_1899,
ITHS00446,Bulciago Cassago-Nibionno,45.7462372,9.2798044,19130101,19130101,19130101,exact,
ITHS00447,Bultei,40.4562109,9.0644445,18990101,18860101,18990101,window_1886_1899,
ITHS00449,Buonalbergo,41.2230773,14.9798206,18850101,18770101,18850101,window_1877_1885,
ITHS00450,Buoncovento,43.135503,11.483773,18990101,18860101,18990101,window_1886_1899,
ITHS00451,Buonfornello,37.972052,13.816408,18990101,18860101,18990101,window_1886_1899,
ITHS00453,Buronzo,45.47179,8.2667,19050101,19050101,19050101,exact,
ITHS00454,Busalla,44.57558,8.943611,18760101,,18760101,open_by_1876,
ITHS00455,Busca,44.520585,7.481589,18990101,18860101,18990101,window_1886_1899,
ITHS00456,Busche-Lentinai-Mel,46.040092,11.979251,18990101,18860101,18990101,window_1886_1899,
ITHS00457,Busseto,44.974692,10.038909,18990101,18860101,18990101,window_1886_1899,
ITHS00458,Bussi,42.194154,13.849075,18760101,,18760101,open_by_1876,
ITHS00459,Bussoleno,45.139631,7.144819,18760101,,18760101,open_by_1876,
ITHS00460,Busto Arsizio,45.616164,8.865031,18760101,,18760101,open_by_1876,
ITHS00461,Butera,37.145078,14.171691,18990101,18860101,18990101,window_1886_1899,
ITHS00462,Butrio,46.012664,13.329039,18850101,18770101,18850101,window_1877_1885,
ITHS00463,Buttrio,46.012664,13.329039,18760101,,18760101,open_by_1876,
ITHS00465,Cabiate,45.675912619201,9.1685473892944,18990101,18860101,18990101,window_1886_1899,
ITHS00466,Cadeo,44.967283,9.853181,18760101,,18760101,open_by_1876,
ITHS00467,Cadorago,45.729908415587,9.0411396204162,18990101,18860101,18990101,window_1886_1899,
ITHS00468,Cagli,43.5457373,12.6517770,18990101,18860101,18990101,window_1886_1899,
ITHS00469,Cagliari,39.216078,9.107984,18760101,,18760101,open_by_1876,
ITHS00470,Cagnola,45.2847948,11.8705704,19070101,19070101,19070101,exact,
ITHS00472,Cairo Montenotte,44.394747,8.278786,18760101,,18760101,open_by_1876,
ITHS00473,Calalzo Pieve di Cadore Cortina,46.443829,12.388668,19310101,19150101,19310101,window_1915_1931,
ITHS00474,Calamandrana,44.738986,8.331572,18760101,,18760101,open_by_1876,
ITHS00475,Calangianus,40.9197741,9.1948191,18990101,18860101,18990101,window_1886_1899,
ITHS00476,Calatabiano,37.814684,15.226568,18760101,,18760101,open_by_1876,
ITHS00477,Calatafimi,37.938858,12.856156,19010101,19010101,19010101,exact,
ITHS00478,Calavorno,44.0217216,10.5297323,19120101,19120101,19120101,exact,
ITHS00479,Calcababbio,45.0406600,9.0813530,18760101,,18760101,open_by_1876,
ITHS00480,Calceranica,46.007384,11.240713,18990101,18860101,18990101,window_1886_1899,
ITHS00481,Calciano,40.595117,16.202526,18850101,18770101,18850101,window_1877_1885,
ITHS00483,Calcio,45.5035182,9.8460885,18850101,18770101,18850101,window_1877_1885,
ITHS00484,Caldare,37.3828178,13.6361184,18760101,,18760101,open_by_1876,
ITHS00485,Caldè,45.945812,8.663157,18990101,18860101,18990101,window_1886_1899,
ITHS00486,Calderara-Bargellino,44.544077940488,11.267445835449,18990101,18860101,18990101,window_1886_1899,
ITHS00487,Calderara di Reno,44.5630515,11.2716930,18990101,18860101,18990101,window_1886_1899,
ITHS00488,Caldiero,45.41407,11.169753,18760101,,18760101,open_by_1876,
ITHS00489,Caldine,43.8321666,11.3087198,18990101,18860101,18990101,window_1886_1899,
ITHS00490,Caldonazzo,45.997575,11.264815,18990101,18860101,18990101,window_1886_1899,
ITHS00491,Calenzano,43.856429,11.14537,18760101,,18760101,open_by_1876,
ITHS00492,Calitri Scalo,40.8872524,15.4300806,18990101,18860101,18990101,window_1886_1899,
ITHS00493,Calliano,45.948299229632,11.07667069156,18760101,,18760101,open_by_1876,
ITHS00494,Calmasino,45.5218586,10.7521092,19040101,19040101,19040101,exact,
ITHS00495,Calmazzo,43.6774088,12.7520367,18990101,18860101,18990101,window_1886_1899,
ITHS00496,Calolzio,45.8074648,9.5217753,18760101,,18760101,open_by_1876,
ITHS00498,Calolziocorte Olginate,45.801619,9.42698,19310101,19150101,19310101,window_1915_1931,
ITHS00499,Calopezzati,39.579022,16.819361,19020101,19020101,19020101,exact,
ITHS00500,Caltagirone,37.225276,14.521165,18990101,18860101,18990101,window_1886_1899,
ITHS00502,Caltanissetta Centrale,37.48829,14.057396,18990101,18860101,18990101,window_1886_1899,
ITHS00503,Caltanissetta Xirbi,37.536296,14.056902,19310101,19150101,19310101,window_1915_1931,
ITHS00504,Caltignaga,45.519167,8.591602,18760101,,18760101,open_by_1876,
ITHS00505,Calusco,45.684113,9.470646,18990101,18860101,18990101,window_1886_1899,
ITHS00506,Caluso,45.303194,7.902568,18760101,,18760101,open_by_1876,
ITHS00507,Calvisano,45.346572,10.349411,18990101,18860101,18990101,window_1886_1899,
ITHS00508,Cama,45.9421869,8.2398085,19080101,19080101,19080101,exact,
ITHS00509,Camartino,45.9376501,8.7877682,19140101,19140101,19140101,exact,
ITHS00510,Cambiano,43.631183,10.958997,18760101,,18760101,open_by_1876,
ITHS00511,Camerato-Aspio,43.518969080696,13.525840712626,18990101,18860101,18990101,window_1886_1899,
ITHS00512,Camerlata,45.7903751,9.0859969,18760101,,18760101,open_by_1876,
ITHS00513,Camigliatello Silano,39.3395972,16.4441207,19310101,19150101,19310101,window_1915_1931,
ITHS00514,Cammarata,37.6338246,13.6377454,18760101,,18760101,open_by_1876,
ITHS00515,Cammarota,40.8012965,15.7143263,18850101,18770101,18850101,window_1877_1885,
ITHS00516,Camnago,45.6689207,9.1301508,18760101,,18760101,open_by_1876,
ITHS00517,Camogli,44.3511373,9.1524917,18760101,,18760101,open_by_1876,
ITHS00518,Campagna,40.6647292,15.1071455,18760101,,18760101,open_by_1876,
ITHS00519,Campana,39.4124481,16.8225645,18760101,,18760101,open_by_1876,
ITHS00520,Campeda,40.3285550,8.7836529,18850101,18770101,18850101,window_1877_1885,
ITHS00521,Campello sul Clitunno,42.822814,12.761253,19020101,19020101,19020101,exact,
ITHS00522,Campi Salentina,0.0,4.5112561156128,19100101,19100101,19100101,exact,
ITHS00523,Campiello,46.0220432,11.3525969,19110101,19110101,19110101,exact,
ITHS00524,Campiglia Marittima,43.017118,10.586558,18760101,,18760101,open_by_1876,
ITHS00527,Campo di Giove,42.007967,14.041492,18990101,18860101,18990101,window_1886_1899,
ITHS00528,Campo ligure,44.5376440,8.6981530,18990101,18860101,18990101,window_1886_1899,
ITHS00529,Campobasso,41.558137,14.66393,18850101,18770101,18850101,window_1877_1885,
ITHS00530,Campobello,36.8287374,11.9717362,18760101,,18760101,open_by_1876,
ITHS00531,Campobello Ravanusa,37.265731,13.946251,18990101,18860101,18990101,window_1886_1899,
ITHS00532,Campochiaro,41.4475240,14.5089280,18990101,18860101,18990101,window_1886_1899,
ITHS00533,Campochiaro,41.4475240,14.5089280,19040101,19040101,19040101,exact,
ITHS00534,Campocroce,41.399448198553,13.205190458902,19040101,19040101,19040101,exact,
ITHS00535,Campodarsego,45.505721,11.900894,18850101,18770101,18850101,window_1877_1885,
ITHS00536,Campodolcino,46.4043271,9.3497395,19040101,19040101,19040101,exact,
ITHS00537,Campofelice,37.992615,13.876549,18990101,18860101,18990101,window_1886_1899,
ITHS00538,Campofranco,37.510105,13.686777,18850101,18770101,18850101,window_1877_1885,
ITHS00539,Campolattaro,41.285869,14.726853,18850101,18770101,18850101,window_1877_1885,
ITHS00540,Campoleone,41.642396,12.648341,19310101,19150101,19310101,window_1915_1931,
ITHS00541,Campolieto,41.6324794,14.7654374,18850101,18770101,18850101,window_1877_1885,
ITHS00542,Campolieto Monacilioni,41.642573,14.76544,18990101,18860101,18990101,window_1886_1899,
ITHS00544,Campomarino,41.957398,15.042416,18760101,,18760101,open_by_1876,
ITHS00545,Campomela,40.68139,8.638875,18760101,,18760101,open_by_1876,
ITHS00546,Camporeggiano,44.161448,10.334849,18990101,18860101,18990101,window_1886_1899,
ITHS00547,Camposampiero,45.568922,11.928293,18760101,,18760101,open_by_1876,
ITHS00548,Camposanto,44.787527,11.143587,18990101,18860101,18990101,window_1886_1899,
ITHS00549,Camurana,44.8629753,11.0786782,19020101,19020101,19020101,exact,
ITHS00550,Cancello,40.993063,14.418877,18760101,,18760101,open_by_1876,
ITHS00551,Candela,41.1379250,15.5146540,18760101,,18760101,open_by_1876,
ITHS00552,Candelo,45.547433,8.100103,18760101,,18760101,open_by_1876,
ITHS00553,Candia,41.346664,15.996588,18760101,,18760101,open_by_1876,
ITHS00554,Candia Lomellina,45.179911,8.593156,18760101,,18760101,open_by_1876,
ITHS00555,Candida,41.346664,15.996588,19020101,19020101,19020101,exact,
ITHS00556,Candiolo,44.961155,7.598973,18760101,,18760101,open_by_1876,
ITHS00558,Canegrate,45.569235,8.926593,18990101,18860101,18990101,window_1886_1899,
ITHS00559,Canelli,44.716716,8.294544,18760101,,18760101,open_by_1876,
ITHS00560,Canepina,42.3811422,12.2334149,19140101,19140101,19140101,exact,
ITHS00561,Canetto sull'Oglio,45.150211,10.37147,18990101,18860101,18990101,window_1886_1899,
ITHS00562,Canfriolo,45.6070886,11.7200176,18760101,,18760101,open_by_1876,
ITHS00563,Canicattì,37.359879,13.855395,18850101,18770101,18850101,window_1877_1885,
ITHS00564,Canicatti,37.359879,13.855395,18760101,,18760101,open_by_1876,
ITHS00565,Caniga,40.716116,8.526395,18850101,18770101,18850101,window_1877_1885,
ITHS00566,Canistro,41.941030956348,13.412163133047,19070101,19070101,19070101,exact,
ITHS00567,Canne,45.0313441,9.2723153,18990101,18770101,18990101,window_1877_1899,
ITHS00568,Cannizzaro,37.54711,15.129698,18990101,18860101,18990101,window_1886_1899,
ITHS00569,Cannole,0.0,4.5112561156128,18760101,,18760101,open_by_1876,
ITHS00570,Canosa di Puglia,41.218556,16.053906,18990101,18860101,18990101,window_1886_1899,
ITHS00571,Canoscio,43.3611532941,12.233295899945,19030101,19030101,19030101,exact,
ITHS00572,Cansano,41.983171634915,13.996947385046,18990101,18860101,18990101,window_1886_1899,
ITHS00573,Cantalupo,44.864787,8.551357,18760101,,18760101,open_by_1876,
ITHS00575,Cantine,42.5208976,14.0206263,19130101,19130101,19130101,exact,
ITHS00576,Cantù,45.752316,9.130321,18990101,18860101,18990101,window_1886_1899,
ITHS00577,Canzo Asso,45.8549723,9.2693160,19310101,19150101,19310101,window_1915_1931,
ITHS00578,Capaccio,40.4244070,15.0808540,18850101,18770101,18850101,window_1877_1885,
ITHS00579,Capaci,38.171810512506,13.232432449934,18850101,18770101,18850101,window_1877_1885,
ITHS00580,Capalbio,42.407974,11.370982,18850101,18770101,18850101,window_1877_1885,
ITHS00581,Capannelle,41.830713,12.568884,18990101,18860101,18990101,window_1886_1899,
ITHS00582,Capistrello,41.97051,13.399276,19030101,19030101,19030101,exact,
ITHS00583,Capitello,41.97051,13.399276,18990101,18860101,18990101,window_1886_1899,
ITHS00584,Capo Bonifati,39.558342,15.874052,18990101,18860101,18990101,window_1886_1899,
ITHS00585,Capo d'Orlando,38.1595733,14.7450733,18990101,18860101,18990101,window_1886_1899,
ITHS00586,Capo di Ponte,46.030989557973,10.346512180346,19030101,19030101,19030101,exact,
ITHS00587,Capo Spartivento,37.924778,16.058342,18760101,,18760101,open_by_1876,
ITHS00588,Capolona,-9.019375697908,4.5112471566161,18990101,18860101,18990101,window_1886_1899,
ITHS00589,Cappelle-Magliano,42.059369,13.372468,18990101,18860101,18990101,window_1886_1899,
ITHS00590,Cappuccini,43.3170346,11.3129904,18990101,18770101,18990101,window_1877_1899,
ITHS00591,Capraia,43.0374371,9.8225555,18990101,18770101,18990101,window_1877_1899,
ITHS00592,Capralba,45.443871,9.640015,18990101,18860101,18990101,window_1886_1899,
ITHS00593,Capranica Sutri,42.245195,12.157194,18990101,18860101,18990101,window_1886_1899,
ITHS00594,Capriati al Volturno,41.44279,14.070664,18990101,18860101,18990101,window_1886_1899,
ITHS00595,Caprino Veronese,45.6254909,10.8078136,18990101,18860101,18990101,window_1886_1899,
ITHS00596,Capriolo,45.64556,9.933806,18760101,,18760101,open_by_1876,
ITHS00597,Capua,41.101306,14.210347,18760101,,18760101,open_by_1876,
ITHS00598,Capurso,0.0,4.5112561156128,18990101,18860101,18990101,window_1886_1899,
ITHS00599,Carate-Calò,45.676451,9.252304,18990101,18860101,18990101,window_1886_1899,
ITHS00600,Caravaggio,45.491158,9.637723,18760101,,18760101,open_by_1876,
ITHS00602,Carbonara Ceglie,41.0684127,16.8709719,18990101,18860101,18990101,window_1886_1899,
ITHS00603,Cariati,39.496884,16.952018,18760101,,18760101,open_by_1876,
ITHS00604,Carimate,45.697094,9.107188,18990101,18860101,18990101,window_1886_1899,
ITHS00605,Carini,38.147696,13.186624,18850101,18770101,18850101,window_1877_1885,
ITHS00606,Carinola,41.1869870,13.9812129,18990101,18860101,18990101,window_1886_1899,
ITHS00607,Carisio,45.403164,8.21249,19050101,19050101,19050101,exact,
ITHS00608,Carmagnola,44.846944,7.72797,18760101,,18760101,open_by_1876,
ITHS00609,Carmignano di Brenta,45.621354,11.714891,19000101,19000101,19000101,exact,
ITHS00610,Carnate Usmate,45.653072,9.375089,19020101,19020101,19020101,exact,
ITHS00611,Carnia,46.373634,13.132847,18990101,18860101,18990101,window_1886_1899,
ITHS00612,Caronia,38.034475,14.443761,18990101,18860101,18990101,window_1886_1899,
ITHS00613,Caronno-Pertusella,45.598200166285,9.0582247610647,18990101,18860101,18990101,window_1886_1899,
ITHS00614,Carovigno,40.737337,17.683791,18850101,18770101,18850101,window_1877_1885,
ITHS00616,Carpane-Valstagna,45.860128,11.661183,19100101,19100101,19100101,exact,
ITHS00617,Carpenedo,45.5046692,12.2507590,18850101,18770101,18850101,window_1877_1885,
ITHS00618,Carpi,44.782919,10.891952,18760101,,18760101,open_by_1876,
ITHS00619,Carpinone,41.588038,14.326783,18990101,18860101,18990101,window_1886_1899,
ITHS00620,Carrara,44.0796519,10.0977529,18760101,,18760101,open_by_1876,
ITHS00621,Carrara Avenza,44.051239,10.062927,19310101,19150101,19310101,window_1915_1931,
ITHS00622,Carrito Ortona,42.026506,13.720179,18990101,18860101,18990101,window_1886_1899,
ITHS00624,Carrù,44.4807314,7.8511229,18760101,,18760101,open_by_1876,
ITHS00625,Carruba,37.694344,15.196143,18850101,18770101,18850101,window_1877_1885,
ITHS00626,Carsoli,42.09578,13.080388,18990101,18860101,18990101,window_1886_1899,
ITHS00627,Carugo-Giussiano,45.705764553364,9.198916473425,18990101,18860101,18990101,window_1886_1899,
ITHS00628,Casacalenda,41.7396685,14.8519039,18850101,18770101,18850101,window_1877_1885,
ITHS00630,Casal Velino,40.1909074,15.1093738,18990101,18860101,18990101,window_1886_1899,
ITHS00631,Casalbordino Pollutri,42.193653,14.633045,18850101,18770101,18850101,window_1877_1885,
ITHS00632,Casalbuono,40.214093,15.686095,18990101,18860101,18990101,window_1886_1899,
ITHS00633,Casalbuttano,45.255398,9.962361,18760101,,18760101,open_by_1876,
ITHS00634,Casalduni,41.2602289,14.6960905,18850101,18770101,18850101,window_1877_1885,
ITHS00635,Casale,45.3859922,8.0070853,18760101,,18760101,open_by_1876,
ITHS00636,Casale Monferrato,45.133928,8.460292,18990101,18860101,18990101,window_1886_1899,
ITHS00637,Casale Popolo,45.160434,8.44055,18990101,18860101,18990101,window_1886_1899,
ITHS00638,Casalecchio,44.4760177,11.2756857,18760101,,18760101,open_by_1876,
ITHS00639,Casalecchio di Reno,44.474298,11.276097,18850101,18770101,18850101,window_1877_1885,
ITHS00640,Casaletto Vaprio,45.408641,9.631746,18760101,,18760101,open_by_1876,
ITHS00641,Casalgrande,0.0,4.5112561156128,18990101,18860101,18990101,window_1886_1899,
ITHS00642,Casalmaggiore,44.993139,10.425023,18850101,18770101,18850101,window_1877_1885,
ITHS00643,Casalnuovo,40.915559,14.35296,18760101,,18760101,open_by_1876,
ITHS00644,Casalpusterlegno,45.182473,9.653627,19310101,19150101,19310101,window_1915_1931,
ITHS00645,Casalpusterlengo,45.182473,9.653627,18760101,,18760101,open_by_1876,
ITHS00646,Casaluce,41.0019120,14.1980270,19130101,19130101,19130101,exact,
ITHS00647,Casamassima,0.0,4.5112561156128,18990101,18860101,18990101,window_1886_1899,
ITHS00648,Casarano,0.0,4.5112561156128,18990101,18860101,18990101,window_1886_1899,
ITHS00649,Casarsa,45.953002,12.8406,18760101,,18760101,open_by_1876,
ITHS00650,Casarsa della Delizia,45.9559372,12.8426929,19310101,19150101,19310101,window_1915_1931,
ITHS00651,Cascano,41.2318332,13.9697886,18990101,18860101,18990101,window_1886_1899,
ITHS00652,Cascina,43.674542,10.545225,18760101,,18760101,open_by_1876,
ITHS00653,Case Bruciate,44.4615753,8.9746810,18760101,,18760101,open_by_1876,
ITHS00654,Casella Paese,44.5343718,8.9957153,19310101,19150101,19310101,window_1915_1931,
ITHS00655,Caselle,45.4147791,10.8988399,18760101,,18760101,open_by_1876,
ITHS00656,Caserta,41.068655,14.328457,18760101,,18760101,open_by_1876,
ITHS00657,Casinalbo,0.0,4.5112561156128,18850101,18770101,18850101,window_1877_1885,
ITHS00658,Casino di Terra,43.328581,10.662975,18760101,,18760101,open_by_1876,
ITHS00659,Casletto-Rogeno,45.786028,9.275375,18990101,18860101,18990101,window_1886_1899,
ITHS00660,Caslino al Piano,45.711106101692,9.0402136295439,18990101,18860101,18990101,window_1886_1899,
ITHS00661,Casorate Sempione,45.675075,8.743954,18990101,18860101,18990101,window_1886_1899,
ITHS00662,Casoria,40.9045572,14.2901223,18760101,,18760101,open_by_1876,
ITHS00663,Cassano al Ionio,39.726326,16.35218,18990101,18860101,18990101,window_1886_1899,
ITHS00664,Cassano d'Adda,45.514372,9.512746,18850101,18770101,18850101,window_1877_1885,
ITHS00665,Cassibile,36.962581,15.191895,18990101,18860101,18990101,window_1886_1899,
ITHS00666,Cassine,44.751513,8.533613,18760101,,18760101,open_by_1876,
ITHS00667,Cassingheno,44.5536799,9.2508217,19130101,19130101,19130101,exact,
ITHS00668,Cassino,41.484306,13.832125,18850101,18770101,18850101,window_1877_1885,
ITHS00669,Cassola,45.732291,11.795866,19110101,19110101,19110101,exact,
ITHS00670,Castagnaro,45.119349,11.403936,18760101,,18760101,open_by_1876,
ITHS00671,Castagneto,44.3430567,10.8912365,18760101,,18760101,open_by_1876,
ITHS00672,Castagnole,45.6895359,12.1818014,18760101,,18760101,open_by_1876,
ITHS00673,Castano Primo,45.556007953481,8.7726052643908,18990101,18860101,18990101,window_1886_1899,
ITHS00674,Castebuono,38.014606,14.108578,18990101,18860101,18990101,window_1886_1899,
ITHS00675,Casteggio,45.017365,9.124595,18760101,,18760101,open_by_1876,
ITHS00676,Castegnato,45.566005723069,10.118531219018,18990101,18860101,18990101,window_1886_1899,
ITHS00677,Castel Bolognese,44.3303030,11.7999064,18760101,,18760101,open_by_1876,
ITHS00678,Castel Bolognese Riolo Terme,44.325391,11.804174,19310101,19150101,19310101,window_1915_1931,
ITHS00681,Castel di Sangro,41.777829,14.112049,18990101,18860101,18990101,window_1886_1899,
ITHS00683,Castel Guelfo,44.836434,10.176706,18760101,,18760101,open_by_1876,
ITHS00684,Castel Lagopesole,40.787682,15.758093,19030101,19030101,19030101,exact,
ITHS00685,Castel Madama,41.988389,12.864938,18850101,18770101,18850101,window_1877_1885,
ITHS00687,Castel S.Pietro,44.407376,11.597681,18760101,,18760101,open_by_1876,
ITHS00688,Castel San Giorgio,40.7844003,14.6993869,18850101,18770101,18850101,window_1877_1885,
ITHS00689,Castel San Pietro,45.1581591,8.2684075,18850101,18770101,18850101,window_1877_1885,
ITHS00690,Castel sant'Angelo,42.379666,13.017612,18850101,18770101,18850101,window_1877_1885,
ITHS00691,Castelalfero,44.986347,8.220882,18760101,,18760101,open_by_1876,
ITHS00692,Castelalfero,44.986347,8.220882,18990101,18770101,18990101,window_1877_1899,
ITHS00693,Casteldaccia,38.060474,13.536867,18760101,,18760101,open_by_1876,
ITHS00694,Castelfiorentino,43.60542,10.968048,18760101,,18760101,open_by_1876,
ITHS00695,Castelfranci,40.935968,15.038655,18990101,18860101,18990101,window_1886_1899,
ITHS00696,Castelfranco,40.935968,15.038655,18760101,,18760101,open_by_1876,
ITHS00697,Castelfranco Veneto,45.666439,11.934315,18990101,18860101,18990101,window_1886_1899,
ITHS00698,Castelguelfo,44.836434,10.176706,18850101,18770101,18850101,window_1877_1885,
ITHS00699,Castelguidone,41.8236474,14.5240787,18990101,18860101,18990101,window_1886_1899,
ITHS00700,Castellaccio,43.4863705,10.3647373,19100101,19100101,19100101,exact,
ITHS00701,Castellalto Canzano,42.69564,13.793043,18850101,18770101,18850101,window_1877_1885,
ITHS00703,Castellammare del Golfo,38.024309,12.912209,18990101,18860101,18990101,window_1886_1899,
ITHS00704,Castellammare di Stabia,40.701398,14.483737,18990101,18860101,18990101,window_1886_1899,
ITHS00705,Castellaneta,40.619501448486,16.928662333179,18760101,,18760101,open_by_1876,
ITHS00706,Castellanza,45.613584399567,8.8939073117622,18990101,18860101,18990101,window_1886_1899,
ITHS00707,Castellaro,43.8718057,7.8725033,18760101,,18760101,open_by_1876,
ITHS00708,Castellazzo,44.6776858,10.7421802,18990101,18860101,18990101,window_1886_1899,
ITHS00709,Castelleone,45.301826,9.76779,18760101,,18760101,open_by_1876,
ITHS00710,Castellino Tanaro,44.41657,7.974321,18850101,18770101,18850101,window_1877_1885,
ITHS00711,Castello,44.9515624,9.2536443,18760101,,18760101,open_by_1876,
ITHS00712,Castellucchio,45.144293,10.64749,18760101,,18760101,open_by_1876,
ITHS00713,Castelmaggiore,44.576055,11.366901,18850101,18770101,18850101,window_1877_1885,
ITHS00714,Castelnuovo,46.0528587,11.4932817,18760101,,18760101,open_by_1876,
ITHS00715,Castelnuovo Belbo,44.798127,8.42516,18760101,,18760101,open_by_1876,
ITHS00716,Castelnuovo Garfagnana,44.116351,10.409054,19020101,19020101,19020101,exact,
ITHS00717,Castelpiano-Cupramontana,43.481403,13.084733,18990101,18860101,18990101,window_1886_1899,
ITHS00718,Castelraimondo,43.2081510,13.0536710,18990101,18860101,18990101,window_1886_1899,
ITHS00719,Castelrosso,45.201802,7.932162,18850101,18770101,18850101,window_1877_1885,
ITHS00720,Castelvetrano,37.684977,12.799552,18850101,18770101,18850101,window_1877_1885,
ITHS00721,Castenaso,0.0,4.5112561156128,18990101,18860101,18990101,window_1886_1899,
ITHS00722,Castigliole,44.807559,8.145712,18760101,,18760101,open_by_1876,
ITHS00724,Castiglion Fiorentino,43.34075,11.914362,18760101,,18760101,open_by_1876,
ITHS00725,Castiglione,42.5718132,13.2179840,18760101,,18760101,open_by_1876,
ITHS00726,Castiglione Cosentino,39.35542,16.244388,19310101,19150101,19310101,window_1915_1931,
ITHS00727,Castiglione del Lago,43.123195,12.032077,18760101,,18760101,open_by_1876,
ITHS00728,Castiglione Sicilia,37.88674,15.097013,18990101,18860101,18990101,window_1886_1899,
ITHS00729,Castiglione-Tocco,42.2265870,13.9045929,19020101,19020101,19020101,exact,
ITHS00730,Castione,46.1734386,9.7992961,18850101,18770101,18850101,window_1877_1885,
ITHS00731,Castrofilippo,37.363751,13.780842,18990101,18860101,18990101,window_1886_1899,
ITHS00732,Castrogiovanni,37.5854195,14.4889015,18850101,18770101,18850101,window_1877_1885,
ITHS00734,Castronno,45.74524,8.810302,18990101,18860101,18990101,window_1886_1899,
ITHS00735,Castronovo,41.8504900,13.4813034,18850101,18770101,18850101,window_1877_1885,
ITHS00736,Castronuovo,40.1907100,16.1854810,18760101,,18760101,open_by_1876,
ITHS00737,Castroreale,38.0992716,15.2106856,19140101,19140101,19140101,exact,
ITHS00738,Casumaro,44.8378428,11.3627650,19030101,19030101,19030101,exact,
ITHS00740,Catania,37.506211,15.099417,18760101,,18760101,open_by_1876,
ITHS00741,Catania Acquicella,37.492765,15.074699,18990101,18860101,18990101,window_1886_1899,
ITHS00742,Catania Centrale,37.506211,15.099417,18990101,18860101,18990101,window_1886_1899,
ITHS00744,Catanzaro Lido,38.821788,16.612975,18990101,18860101,18990101,window_1886_1899,
ITHS00746,Catanzaro Sala,38.8956990,16.5986990,19000101,19000101,19000101,exact,
ITHS00748,Catenanuova,37.5679714,14.6918187,18760101,,18760101,open_by_1876,
ITHS00749,Catona,40.1496604,15.2361380,18850101,18770101,18850101,window_1877_1885,
ITHS00750,Cattolica,43.9639933,12.7441515,18760101,,18760101,open_by_1876,
ITHS00751,Cattolica San Giovanni Gabicce,43.959931,12.745087,18990101,18860101,18990101,window_1886_1899,
ITHS00752,Caulonia,38.343785,16.467278,18760101,,18760101,open_by_1876,
ITHS00753,Cava Carbonara,45.147055,9.071387,18760101,,18760101,open_by_1876,
ITHS00754,Cava dei Tirreni,40.703662,14.708461,18850101,18770101,18850101,window_1877_1885,
ITHS00755,Cava Manara(San Martino Siccomario),45.1449155,9.1152853,18990101,18860101,18990101,window_1886_1899,
ITHS00756,Cava Tigozzi,45.156823,9.955827,18850101,18770101,18850101,window_1877_1885,
ITHS00757,Cavai,45.8563547,10.6295568,18760101,,18760101,open_by_1876,
ITHS00758,Cavallerleone,44.7366939,7.6554046,18990101,18860101,18990101,window_1886_1899,
ITHS00759,Cavallermaggiore,44.708147,7.692108,18760101,,18760101,open_by_1876,
ITHS00760,Cavanella d'Adige,45.111263,12.249312,19010101,19010101,19010101,exact,
ITHS00761,Cavaria Oggiona Jerago,45.698145,8.8035,19030101,19030101,19030101,exact,
ITHS00762,Cavarzere,45.1130023,12.1329479,19030101,19030101,19030101,exact,
ITHS00763,Cavazzale,45.596079,11.569823,19030101,19030101,19030101,exact,
ITHS00764,Cavi,44.29354,9.37251,18850101,18770101,18850101,window_1877_1885,
ITHS00765,Ceccano,41.573583,13.336417,18760101,,18760101,open_by_1876,
ITHS00766,Cecchina,41.692029,12.650992,18990101,18860101,18990101,window_1886_1899,
ITHS00767,Cecina,43.31028,10.514225,18760101,,18760101,open_by_1876,
ITHS00768,Cedegolo,46.072431298039,10.349976815433,19010101,19010101,19010101,exact,
ITHS00769,Cefalu,38.03285,14.019526,18990101,18860101,18990101,window_1886_1899,
ITHS00770,Ceggia,45.688394,12.633987,18990101,18860101,18990101,window_1886_1899,
ITHS00771,Ceglie Messapica,0.0,4.5112561156128,18990101,18860101,18990101,window_1886_1899,
ITHS00772,Celano-Ovindoli,42.076999,13.543398,18990101,18860101,18990101,window_1886_1899,
ITHS00773,Celle,44.34246,8.542626,18760101,,18760101,open_by_1876,
ITHS00775,Cengio,44.390798,8.191824,18760101,,18760101,open_by_1876,
ITHS00776,Censiti,37.7915099,13.2700480,19050101,19050101,19050101,exact,
ITHS00777,Centallo,44.496223,7.591035,18760101,,18760101,open_by_1876,
ITHS00778,Cento,44.7274395,11.2903029,19030101,19030101,19030101,exact,
ITHS00779,Centola-Palinuro-Marina di Camerota,40.090672,15.34674,18990101,18860101,18990101,window_1886_1899,
ITHS00780,Ceprano,41.5455790,13.5155537,18760101,,18760101,open_by_1876,
ITHS00781,Ceraino,45.5715603,10.8246932,18760101,,18760101,open_by_1876,
ITHS00782,Cercenasco,44.864897,7.495302,18990101,18770101,18990101,window_1877_1899,
ITHS00783,Cerchio,42.061082,13.597972,18990101,18860101,18990101,window_1886_1899,
ITHS00784,Cerda,37.953964,13.78447,18760101,,18760101,open_by_1876,
ITHS00785,Cerea,45.196556,11.213921,18760101,,18760101,open_by_1876,
ITHS00786,Ceregnano,45.05062,11.870958,18850101,18770101,18850101,window_1877_1885,
ITHS00787,Ceres,45.313103660514,7.3906183234448,18990101,18860101,18990101,window_1886_1899,
ITHS00788,Ceriale,44.098922,8.234216,18760101,,18760101,open_by_1876,
ITHS00789,Ceriano-Laghetto-Solaro,45.622466290041,9.0591349747903,18990101,18860101,18990101,window_1886_1899,
ITHS00790,Cerignola,41.2648121,15.8996651,18760101,,18760101,open_by_1876,
ITHS00791,Cerignola Campagna,41.315664,15.897298,18990101,18860101,18990101,window_1886_1899,
ITHS00792,Cernusco,45.5245578,9.3309250,18760101,,18760101,open_by_1876,
ITHS00793,Cernusco Merate,45.695096,9.396794,18990101,18860101,18990101,window_1886_1899,
ITHS00794,Cerreto d'Esi,43.32205,12.98319,18850101,18770101,18850101,window_1877_1885,
ITHS00795,Cerro Tanaro,44.8724155,8.3602486,18990101,18860101,18990101,window_1886_1899,
ITHS00796,Certaldo,43.547124,11.037711,18760101,,18760101,open_by_1876,
ITHS00797,Certosa,44.4310158,8.8935341,18760101,,18760101,open_by_1876,
ITHS00798,Cervaro-Fontanarosa,41.4467910,13.8637963,18990101,18860101,18990101,window_1886_1899,
ITHS00799,Cervia Milano Marittima,44.258444,12.347096,18990101,18860101,18990101,window_1886_1899,
ITHS00800,Cervignano Aquileia Grado,45.823948,13.342866,18990101,18860101,18990101,window_1886_1899,
ITHS00801,Cervignasco,44.699669,7.518644,18990101,18860101,18990101,window_1886_1899,
ITHS00802,Cervinara,-9.019375697908,4.5112471566161,19100101,19100101,19100101,exact,
ITHS00803,Cervo San Bartolomeo,43.923901,8.109704,18850101,18770101,18850101,window_1877_1885,
ITHS00804,Cesano di Roma,42.061833,12.326669,18990101,18860101,18990101,window_1886_1899,
ITHS00805,Cesano Maderno,45.632042665271,9.1417428349233,18990101,18860101,18990101,window_1886_1899,
ITHS00806,Cesena,44.145449,12.24964,18760101,,18760101,open_by_1876,
ITHS00807,Cesenatico,44.20065,12.391186,18990101,18860101,18990101,window_1886_1899,
ITHS00808,Cesuna,45.8387367,11.4548200,19110101,19110101,19110101,exact,
ITHS00809,Ceto-Cervento,45.99683105327,10.339019723933,19100101,19100101,19100101,exact,
ITHS00810,Cetraro,39.512553,15.939263,18990101,18860101,18990101,window_1886_1899,
ITHS00812,Ceva,44.389861,8.031958,18760101,,18760101,open_by_1876,
ITHS00814,Chambave,45.7104782,7.5506560,18990101,18860101,18990101,window_1886_1899,
ITHS00815,Chatillo Saint Vicent,45.7434,7.619309,18990101,18860101,18990101,window_1886_1899,
ITHS00816,Cherasco,44.65261,7.867211,18760101,,18760101,open_by_1876,
ITHS00817,Chiaia,40.8352689,14.2282679,19030101,19030101,19030101,exact,
ITHS00818,Chianche,41.0461566,14.7895888,18990101,18860101,18990101,window_1886_1899,
ITHS00819,Chiaravalle,43.595503,13.327655,18760101,,18760101,open_by_1876,
ITHS00820,Chiari,45.54011,9.926474,18760101,,18760101,open_by_1876,
ITHS00821,Chiarone,42.387528,11.446123,18760101,,18760101,open_by_1876,
ITHS00822,Chiasso,45.830736,9.03421,18850101,18770101,18850101,window_1877_1885,
ITHS00823,Chiatona,40.5208230,17.0606575,18850101,18770101,18850101,window_1877_1885,
ITHS00824,Chiavari,44.315156,9.322464,18760101,,18760101,open_by_1876,
ITHS00826,Chiavenna,46.321258,9.407129,18990101,18860101,18990101,window_1886_1899,
ITHS00827,Chieri,45.007008,7.827077,18990101,18860101,18990101,window_1886_1899,
ITHS00829,Chieti,42.356905,14.13815,18760101,,18760101,open_by_1876,
ITHS00830,Chieuti,42.356905,14.13815,18760101,,18760101,open_by_1876,
ITHS00831,Chieuti Serracapriota,41.921962,15.156645,18850101,18770101,18850101,window_1877_1885,
ITHS00832,Chignolo,45.8492096,9.5099311,18760101,,18760101,open_by_1876,
ITHS00833,Chignolo Po,45.160942,9.494196,18850101,18770101,18850101,window_1877_1885,
ITHS00834,Chilivani,40.6091709,8.9342684,18850101,18770101,18850101,window_1877_1885,
ITHS00835,Chioggia,45.210243,12.275235,18850101,18770101,18850101,window_1877_1885,
ITHS00836,Chiomonte,45.119876,6.988716,18760101,,18760101,open_by_1876,
ITHS00837,Chiozza,0.0,4.5112561156128,19080101,19080101,19080101,exact,
ITHS00838,Chiozzola,44.83902160282,10.368591084858,18850101,18770101,18850101,window_1877_1885,
ITHS00839,Chiuro,46.164658,9.992317,19030101,19030101,19030101,exact,
ITHS00840,Chiusa-Sclafani,37.6772195,13.2705210,19020101,19020101,19020101,exact,
ITHS00841,Chiusaforte,46.4083337,13.3090250,18850101,18770101,18850101,window_1877_1885,
ITHS00842,Chiusi,43.0165150,11.9477359,18760101,,18760101,open_by_1876,
ITHS00843,Chiusi Chianciano Terme,43.002466,11.957893,19310101,19150101,19310101,window_1915_1931,
ITHS00844,Chivasso,45.193637,7.889666,18760101,,18760101,open_by_1876,
ITHS00845,Ciampino,41.804442,12.599546,18760101,,18760101,open_by_1876,
ITHS00846,Ciano d'Enza,0.0,4.5112561156128,19000101,19000101,19000101,exact,
ITHS00847,Cibali,37.5199581,15.0674419,18990101,18860101,18990101,window_1886_1899,
ITHS00848,Cicciano,40.9647140,14.5389350,18990101,18860101,18990101,window_1886_1899,
ITHS00849,Ciciano,43.1418440,11.0711822,18990101,18770101,18990101,window_1877_1899,
ITHS00850,Cignoni,39.8154372,9.1025403,19140101,19140101,19140101,exact,
ITHS00851,Cimitile,40.9405130,14.5254350,18990101,18860101,18990101,window_1886_1899,
ITHS00852,Cinisi-Terrasini,38.155314,13.096673,18850101,18770101,18850101,window_1877_1885,
ITHS00853,Cirella-Maiera,39.708556,15.812289,19030101,19030101,19030101,exact,
ITHS00855,Ciriè,-9.019375697908,4.5112471566161,18990101,18860101,18990101,window_1886_1899,
ITHS00856,Cirò,39.368701,17.116997,18760101,,18760101,open_by_1876,
ITHS00857,Ciro,39.368701,17.116997,18990101,18860101,18990101,window_1886_1899,
ITHS00858,Cisano,45.5300001,10.7262471,18760101,,18760101,open_by_1876,
ITHS00859,Cislago,45.661057312628,8.9776390731958,18990101,18860101,18990101,window_1886_1899,
ITHS00860,Cisterna,45.8828460,11.0865495,18990101,18860101,18990101,window_1886_1899,
ITHS00861,Cisternino,40.816652,17.456899,18850101,18770101,18850101,window_1877_1885,
ITHS00862,Cisternino Citta,40.816652,17.456899,19310101,19150101,19310101,window_1915_1931,
ITHS00863,Citerna,43.4984067,12.1155164,18990101,18860101,18990101,window_1886_1899,
ITHS00864,Citta di Castello,43.441361957213,12.262281409786,18990101,18860101,18990101,window_1886_1899,
ITHS00865,Cittadella,45.643868,11.789857,18760101,,18760101,open_by_1876,
ITHS00866,Cittaducale,42.387764,12.94269,18850101,18770101,18850101,window_1877_1885,
ITHS00867,Cittiglio,45.892280088566,8.6672828916366,18990101,18860101,18990101,window_1886_1899,
ITHS00869,Civate,45.831295,9.352877,18990101,18860101,18990101,window_1886_1899,
ITHS00870,Civate,45.831295,9.352877,18990101,18770101,18990101,window_1877_1899,
ITHS00871,Civezzano,46.0992707,11.1814661,19100101,19100101,19100101,exact,
ITHS00872,Cividale del Friuli,46.063393747387,13.39777873675,18990101,18860101,18990101,window_1886_1899,
ITHS00873,Civita Castellana,42.2952260,12.4091700,18990101,18860101,18990101,window_1886_1899,
ITHS00875,Civitanova Marche Montegranaro,43.3091,13.7257,18990101,18860101,18990101,window_1886_1899,
ITHS00876,Civitavecchia,42.088287,11.79815,18760101,,18760101,open_by_1876,
ITHS00878,Classe,44.382033,12.234995,18850101,18770101,18850101,window_1877_1885,
ITHS00879,Clusone,45.8870880,9.9496560,19120101,19120101,19120101,exact,
ITHS00880,Coccaglio,45.560971,9.977648,18760101,,18760101,open_by_1876,
ITHS00881,Cocconato,45.082926,8.070145,19140101,19140101,19140101,exact,
ITHS00882,Cocullo,42.040723,13.776636,18990101,18860101,18990101,window_1886_1899,
ITHS00883,Codemondo,0.0,4.5112561156128,19100101,19100101,19100101,exact,
ITHS00884,Codigoro,0.0,4.5112561156128,18990101,18860101,18990101,window_1886_1899,
ITHS00885,Codisotto,44.994818999578,10.730798172318,18850101,18770101,18850101,window_1877_1885,
ITHS00886,Codogno,45.154897,9.701376,18760101,,18760101,open_by_1876,
ITHS00887,Codola,40.767687,14.665622,18760101,,18760101,open_by_1876,
ITHS00888,Codroipo,45.9657,12.976543,18760101,,18760101,open_by_1876,
ITHS00890,Coghinas,40.9042670,8.8686160,19100101,19100101,19100101,exact,
ITHS00891,Cogoleto,44.389762,8.643906,18760101,,18760101,open_by_1876,
ITHS00892,Cogollo,45.5448315,11.1556479,19100101,19100101,19100101,exact,
ITHS00894,Colfiorito,43.0269399,12.8903815,19040101,19040101,19040101,exact,
ITHS00895,Colico,46.138019,9.375222,18990101,18860101,18990101,window_1886_1899,
ITHS00896,Collarmene,42.060382025699,13.629197132741,18990101,18860101,18990101,window_1886_1899,
ITHS00898,Colle Salvetti,43.586586,10.470534,18760101,,18760101,open_by_1876,
ITHS00899,Collecchio,44.755339,10.21228,18850101,18770101,18850101,window_1877_1885,
ITHS00900,Colleferro Segni Paliano,41.740062,13.00299,19310101,19150101,19310101,window_1915_1931,
ITHS00901,Collegno,45.078854,7.574131,18760101,,18760101,open_by_1876,
ITHS00902,Collepepe,42.9208388,12.3987372,18990101,18770101,18990101,window_1877_1899,
ITHS00903,Colleranesco,42.7212560,13.9387949,19080101,19080101,19080101,exact,
ITHS00904,Collevalenza,42.7460962,12.4853374,19100101,19100101,19100101,exact,
ITHS00906,Colorno,44.927943,10.382935,18850101,18770101,18850101,window_1877_1885,
ITHS00907,Comignago,45.714296,8.566362,19060101,19060101,19060101,exact,
ITHS00908,Comiso,36.947184,14.60037,18990101,18860101,18990101,window_1886_1899,
ITHS00909,Comitini,37.423806,13.6528,18760101,,18760101,open_by_1876,
ITHS00910,Comitini Zolfare,37.409955,13.661007,18850101,18770101,18850101,window_1877_1885,
ITHS00911,Como,45.9394759,9.1494101,18760101,,18760101,open_by_1876,
ITHS00912,Como Borghi,45.804954559254,9.090960644152,18990101,18860101,18990101,window_1886_1899,
ITHS00914,Como Nord Lago,45.8141163,9.0840902,18850101,18770101,18850101,window_1877_1885,
ITHS00915,Como San Giovanni,45.808946,9.072331,19310101,19150101,19310101,window_1915_1931,
ITHS00916,Compiobbi,43.782527,11.358695,18760101,,18760101,open_by_1876,
ITHS00918,Condofuri,37.92761,15.874952,19140101,19140101,19140101,exact,
ITHS00919,Condove,45.1174186,7.3094552,18760101,,18760101,open_by_1876,
ITHS00920,Conegliano,45.884706,12.298909,18760101,,18760101,open_by_1876,
ITHS00921,Consandolo,44.670644298095,11.760693599763,18990101,18860101,18990101,window_1886_1899,
ITHS00922,Conselice,44.510987,11.831949,18760101,,18760101,open_by_1876,
ITHS00923,Contea-Londa,43.865124,11.531603,19140101,19140101,19140101,exact,
ITHS00924,Contessa Entellina,37.7309803,13.1831444,19050101,19050101,19050101,exact,
ITHS00925,Contigliano,42.412072,12.779144,18850101,18770101,18850101,window_1877_1885,
ITHS00927,Contursi,40.630046,15.235486,18760101,,18760101,open_by_1876,
ITHS00928,Conversano,0.0,4.5112561156128,18990101,18860101,18990101,window_1886_1899,
ITHS00929,Conza-Andretta,40.8833658,15.3435738,18990101,18860101,18990101,window_1886_1899,
ITHS00930,Copertino,0.0,4.5112561156128,19090101,19090101,19090101,exact,
ITHS00931,Copparo,44.8941828,11.8278892,19040101,19040101,19040101,exact,
ITHS00932,Corbezzi,43.993948,10.919676,18850101,18770101,18850101,window_1877_1885,
ITHS00933,Corchiano,42.361351,12.341846,19130101,19130101,19130101,exact,
ITHS00934,Corconio,45.7791635,8.4284514,18990101,18860101,18990101,window_1886_1899,
ITHS00935,Cori,41.6431038,12.9158514,18990101,18860101,18990101,window_1886_1899,
ITHS00936,Corigliano Calabro,39.628223,16.514949,18990101,18860101,18990101,window_1886_1899,
ITHS00937,Corigliano d'Otranto,0.0,4.5112561156128,18990101,18860101,18990101,window_1886_1899,
ITHS00938,Corleone,37.8121051,13.3014827,18990101,18860101,18990101,window_1886_1899,
ITHS00939,Cormano Brusuglio,45.541970877719,9.1734881523318,18760101,,18760101,open_by_1876,
ITHS00940,Cormons,45.957519,13.461563,18760101,,18760101,open_by_1876,
ITHS00941,Corneto,42.7928088,13.4365308,18850101,18770101,18850101,window_1877_1885,
ITHS00942,Corniglia,44.119938,9.711051,18760101,,18760101,open_by_1876,
ITHS00943,Cornigliano,42.412072,12.779144,18760101,,18760101,open_by_1876,
ITHS00944,Cornuda,45.833846,12.012886,18850101,18770101,18850101,window_1877_1885,
ITHS00945,Correggio,44.7557102,10.7628080,18990101,18860101,18990101,window_1886_1899,
ITHS00946,Corsico,45.434688,9.105156,18760101,,18760101,open_by_1876,
ITHS00947,Corteleona,45.159701,9.375477,18850101,18770101,18850101,window_1877_1885,
ITHS00948,Corteolona,45.159701,9.375477,18760101,,18760101,open_by_1876,
ITHS00949,Corticella,44.6339682,10.7523961,18760101,,18760101,open_by_1876,
ITHS00951,Cosenza,39.318386,16.260955,18850101,18770101,18850101,window_1877_1885,
ITHS00952,Cosenza Casali,39.2879374,16.2661355,18990101,18860101,18990101,window_1886_1899,
ITHS00953,Cosio-Traona,46.135564,9.525498,18990101,18860101,18990101,window_1886_1899,
ITHS00954,Cossato,45.564216,8.175964,18990101,18860101,18990101,window_1886_1899,
ITHS00956,Coste Masnaga,45.76343,9.285231,19120101,19120101,19120101,exact,
ITHS00957,Costermano,45.5896042,10.7364845,18990101,18860101,18990101,window_1886_1899,
ITHS00958,Costigliole d'Asti,44.754882,8.20477,18850101,18770101,18850101,window_1877_1885,
ITHS00959,Cotrone,39.0806223,17.1271960,18760101,,18760101,open_by_1876,
ITHS00960,Cozzo,45.182989,8.603292,18990101,18860101,18990101,window_1886_1899,
ITHS00961,Crecchio,42.2985442,14.3268988,19140101,19140101,19140101,exact,
ITHS00962,Crema,45.366864,9.694209,18760101,,18760101,open_by_1876,
ITHS00963,Cremenaga,45.9889227,8.8021840,18990101,18860101,18990101,window_1886_1899,
ITHS00964,Cremona,45.143215,10.017951,18760101,,18760101,open_by_1876,
ITHS00965,Cremosina,46.0236738,8.3007271,18990101,18860101,18990101,window_1886_1899,
ITHS00966,Crescentino,45.194302,8.107175,18990101,18860101,18990101,window_1886_1899,
ITHS00967,Crespino,45.0011915,11.8855092,18990101,18860101,18990101,window_1886_1899,
ITHS00968,Cressa Fontaneto,45.646331,8.498435,18990101,18860101,18990101,window_1886_1899,
ITHS00969,Creva,45.9950957,8.7550298,18990101,18770101,18990101,window_1877_1899,
ITHS00970,Crevalcore,44.719156,11.152625,18990101,18860101,18990101,window_1886_1899,
ITHS00973,Crocetta,-9.019375697908,4.5112471566161,18990101,18860101,18990101,window_1886_1899,
ITHS00974,Crocicchie,42.0559,12.238888,18990101,18860101,18990101,window_1886_1899,
ITHS00975,Cropani,38.921968,16.813562,18850101,18770101,18850101,window_1877_1885,
ITHS00976,Crosa,45.6087650,8.1865230,19120101,19120101,19120101,exact,
ITHS00977,Crotone,39.0845,17.108418,18850101,18770101,18850101,window_1877_1885,
ITHS00978,Crucoli,39.449588,17.040718,18760101,,18760101,open_by_1876,
ITHS00980,Cucciago,45.740813,9.082205,18760101,,18760101,open_by_1876,
ITHS00981,Cucco,44.8532465,8.9403337,19100101,19100101,19100101,exact,
ITHS00982,Culmine,45.9021908,9.4939074,18990101,18770101,18990101,window_1877_1899,
ITHS00983,Cunardo,45.9374760,8.8012453,19050101,19050101,19050101,exact,
ITHS00984,Cuneo,44.387914,7.536235,18760101,,18760101,open_by_1876,
ITHS00985,Cunico,45.0399500,8.0967310,19130101,19130101,19130101,exact,
ITHS00986,Cuorgnè,45.38919,7.654662,19050101,19050101,19050101,exact,
ITHS00987,Cupra Marittima,43.02349,13.860812,18760101,,18760101,open_by_1876,
ITHS00988,Cureggio,45.672538,8.456282,19060101,19060101,19060101,exact,
ITHS00989,Curinga,38.840000517762,16.260928773888,18990101,18860101,18990101,window_1886_1899,
ITHS00990,Cutro,39.02593,16.963809,18760101,,18760101,open_by_1876,
ITHS00992,Cuzzago,45.993682,8.373989,18990101,18860101,18990101,window_1886_1899,
ITHS00993,Decimomannu,39.304593,8.965808,18760101,,18760101,open_by_1876,
ITHS00994,Decollatura,39.0477890,16.3550980,18990101,18860101,18990101,window_1886_1899,
ITHS00995,Dego,44.448003,8.308469,18760101,,18760101,open_by_1876,
ITHS00996,Deila,45.6143333,8.1639226,18990101,18860101,18990101,window_1886_1899,
ITHS00997,Deiva,44.2182308,9.5200465,18760101,,18760101,open_by_1876,
ITHS00998,Delebio,46.13865,9.461168,18850101,18770101,18850101,window_1877_1885,
ITHS00999,Delle,37.5160628,15.0966867,18990101,18770101,18990101,window_1877_1899,
ITHS01000,Dermulo,46.3381739,11.0625188,19100101,19100101,19100101,exact,
ITHS01001,Dervio,46.077709,9.30596,18990101,18860101,18990101,window_1886_1899,
ITHS01002,Desenzano,45.4694851,10.5389467,18760101,,18760101,open_by_1876,
ITHS01003,Desenzano del Garda-Sirmione,45.462677,10.536322,18990101,18860101,18990101,window_1886_1899,
ITHS01004,Desio,45.620112,9.218495,18760101,,18760101,open_by_1876,
ITHS01005,Desulo-Tonara,39.9932081,9.1814221,18990101,18860101,18990101,window_1886_1899,
ITHS01006,Diamante Buonvicino,39.67701,15.824278,18990101,18860101,18990101,window_1886_1899,
ITHS01007,Diano,43.916395509856,8.0783036263974,19310101,19150101,19310101,window_1915_1931,
ITHS01008,Diano Marina,43.9080136,8.0666753,18760101,,18760101,open_by_1876,
ITHS01010,Dicomano,43.893489,11.519148,19110101,19110101,19110101,exact,
ITHS01011,Diecimo-Pescasglia,43.959404,10.507844,18990101,18860101,18990101,window_1886_1899,
ITHS01012,Dinazzano,0.0,4.5112561156128,18990101,18860101,18990101,window_1886_1899,
ITHS01013,Dirillo,37.006569,14.39154,18990101,18860101,18990101,window_1886_1899,
ITHS01014,Dittaino,37.564605,14.462429,18990101,18860101,18990101,window_1886_1899,
ITHS01015,Dogna,46.4478748,13.3150568,18850101,18770101,18850101,window_1877_1885,
ITHS01016,Dolcè,45.6071056,10.8676247,18990101,18860101,18990101,window_1886_1899,
ITHS01018,Dolo,45.453466,12.07161,18760101,,18760101,open_by_1876,
ITHS01019,Domegliara,45.5223979,10.8204608,18760101,,18760101,open_by_1876,
ITHS01020,Domodossola,46.115429,8.296684,18990101,18860101,18990101,window_1886_1899,
ITHS01023,Donnafugata,36.882055,14.568968,18990101,18860101,18990101,window_1886_1899,
ITHS01024,Donnaz,44.818902,8.712792,18990101,18860101,18990101,window_1886_1899,
ITHS01025,Donori,39.4317971,9.1271532,18990101,18860101,18990101,window_1886_1899,
ITHS01026,Dorio,46.102756,9.319063,18990101,18860101,18990101,window_1886_1899,
ITHS01027,Dormelletto,45.7233,8.581906,19110101,19110101,19110101,exact,
ITHS01028,Dossobuono,45.392382,10.914831,18760101,,18760101,open_by_1876,
ITHS01030,Dubino,46.172802,9.432188,18990101,18860101,18990101,window_1886_1899,
ITHS01031,Due maestà,44.6597598,10.6508870,18990101,18860101,18990101,window_1886_1899,
ITHS01032,Dueville,45.635,11.546108,18850101,18770101,18850101,window_1877_1885,
ITHS01033,Dugenta,41.1322170,14.4524310,18760101,,18760101,open_by_1876,
ITHS01034,Duino,46.172802,9.432188,18760101,,18760101,open_by_1876,
ITHS01035,Eboli,40.611057,15.052382,18760101,,18760101,open_by_1876,
ITHS01036,Eca Nasagò,44.160769,7.965137,18990101,18860101,18990101,window_1886_1899,
ITHS01037,Edolo,46.176904222626,10.329405117497,18990101,18860101,18990101,window_1886_1899,
ITHS01040,Elini Ilbono,39.9002608,9.5306024,18990101,18860101,18990101,window_1886_1899,
ITHS01041,Ellera,38.4212868,16.5434663,18760101,,18760101,open_by_1876,
ITHS01042,Elmas,39.2680862,9.0496306,18850101,18770101,18850101,window_1877_1885,
ITHS01043,Empoli,43.715708,10.94915,18760101,,18760101,open_by_1876,
ITHS01044,Enas,40.85706,9.431095,18850101,18770101,18850101,window_1877_1885,
ITHS01045,Enna,37.581134,14.289579,19310101,19150101,19310101,window_1915_1931,
ITHS01046,Equi Terme,44.170282,10.153624,19100101,19100101,19100101,exact,
ITHS01047,Erba,45.813138450391,9.2302151185209,18850101,18770101,18850101,window_1877_1885,
ITHS01048,Este,45.220954,11.662931,18760101,,18760101,open_by_1876,
ITHS01050,Esterzili,39.7791490,9.2847410,18990101,18860101,18990101,window_1886_1899,
ITHS01051,Exilles,45.08999,6.927344,18760101,,18760101,open_by_1876,
ITHS01052,Fabriano,43.345429,12.905336,18760101,,18760101,open_by_1876,
ITHS01053,Faenza,44.293594,11.883268,18760101,,18760101,open_by_1876,
ITHS01054,Fagarè della Battaglia,45.7072104,12.4267495,18850101,18770101,18850101,window_1877_1885,
ITHS01056,Fagnano Campana,42.250575,13.562743,18850101,18770101,18850101,window_1877_1885,
ITHS01057,Falconara,37.113529,14.052516,18760101,,18760101,open_by_1876,
ITHS01058,Falconara Marittima,43.630577,13.397378,18990101,18860101,18990101,window_1886_1899,
ITHS01059,Falcone,38.119573,15.080467,18990101,18860101,18990101,window_1886_1899,
ITHS01060,Faleri,42.3056510,12.3518083,19130101,19130101,19130101,exact,
ITHS01061,Falerna,38.970726,16.14991,18990101,18860101,18990101,window_1886_1899,
ITHS01063,Fano,43.842977,13.02478,18760101,,18760101,open_by_1876,
ITHS01065,Fanzolo,45.708253,11.992069,18990101,18860101,18990101,window_1886_1899,
ITHS01066,Fara Novarese,45.5551594,8.4589412,19010101,19010101,19010101,exact,
ITHS01067,Fara Sabina,42.2095575,12.7292119,18990101,18860101,18990101,window_1886_1899,
ITHS01068,Farigliano,44.513337,7.90947,18760101,,18760101,open_by_1876,
ITHS01069,Fasano,40.851753,17.3859,18760101,,18760101,open_by_1876,
ITHS01070,Fauglia,43.5674662,10.5066841,18760101,,18760101,open_by_1876,
ITHS01071,Favarotta,37.20532,13.913217,18990101,18860101,18990101,window_1886_1899,
ITHS01072,Favazzina,38.258742,15.756625,18990101,18860101,18990101,window_1886_1899,
ITHS01073,Favignana,37.9314018,12.3274291,19080101,19080101,19080101,exact,
ITHS01074,Favria,45.337174,7.689845,19070101,19070101,19070101,exact,
ITHS01076,Feletto,45.303696,7.743724,18760101,,18760101,open_by_1876,
ITHS01077,Felizzano,44.893367,8.437155,18760101,,18760101,open_by_1876,
ITHS01078,Felonica Po,44.9718435,11.3384518,18990101,18860101,18990101,window_1886_1899,
ITHS01079,Feltre,46.012884,11.911493,18990101,18860101,18990101,window_1886_1899,
ITHS01080,Ferentino,41.6929320,13.2534215,18760101,,18760101,open_by_1876,
ITHS01081,Fermignano,43.6767577,12.6453734,18990101,18860101,18990101,window_1886_1899,
ITHS01082,Feroleto Antico,38.9610947,16.3883274,18990101,18860101,18990101,window_1886_1899,
ITHS01083,Ferrandina,40.5012180,16.4546830,18760101,,18760101,open_by_1876,
ITHS01085,Ferrania,44.365136,8.328885,18990101,18860101,18990101,window_1886_1899,
ITHS01086,Ferrara,44.843047,11.603594,18760101,,18760101,open_by_1876,
ITHS01087,Ferrera,45.8672047,8.1879614,18760101,,18760101,open_by_1876,
ITHS01089,Ficarazzi,38.088244,13.464222,18760101,,18760101,open_by_1876,
ITHS01090,Ficulle,42.8362745,12.0656093,18760101,,18760101,open_by_1876,
ITHS01091,Ficuzza,37.8822768,13.3774398,18990101,18860101,18990101,window_1886_1899,
ITHS01092,Fidenza,44.86773,10.06339,19310101,19150101,19310101,window_1915_1931,
ITHS01093,Figline,43.9228771,11.0911339,18760101,,18760101,open_by_1876,
ITHS01094,Filattiera,44.33137,9.933352,18990101,18860101,18990101,window_1886_1899,
ITHS01095,Fildidonna,37.310867,14.808848,18990101,18860101,18990101,window_1886_1899,
ITHS01097,Filottrano,43.4344529,13.3483604,19130101,19130101,19130101,exact,
ITHS01098,Finale Emilia,44.8345740,11.2939050,18990101,18860101,18990101,window_1886_1899,
ITHS01099,Finale Ligure-Marina,44.169116,8.34033,19000101,19000101,19000101,exact,
ITHS01100,Finalmarina,44.1694562,8.3450155,18760101,,18760101,open_by_1876,
ITHS01101,Fino Mornasco,45.746539530325,9.0470655637214,18990101,18860101,18990101,window_1886_1899,
ITHS01102,Fiorenzuola,44.928716,9.917403,18760101,,18760101,open_by_1876,
ITHS01103,Firenze,43.7697955,11.2556404,18760101,,18760101,open_by_1876,
ITHS01104,Firenze Campo di Marte,43.776856,11.27702,18990101,18860101,18990101,window_1886_1899,
ITHS01105,Firenze Porta al Prato,43.778308932201,11.238102665556,19310101,19150101,19310101,window_1915_1931,
ITHS01106,Firenze Rifredi,43.800873,11.235729,18990101,18860101,18990101,window_1886_1899,
ITHS01107,Firenze Santa Maria Novella,43.776893,11.247373,19310101,19150101,19310101,window_1915_1931,
ITHS01108,Fisciano,40.759095,14.77486,19030101,19030101,19030101,exact,
ITHS01109,Fiumefreddo,39.2347925,16.0671836,18850101,18770101,18850101,window_1877_1885,
ITHS01110,Fiumelatte,45.999017,9.292857,18990101,18860101,18990101,window_1886_1899,
ITHS01111,Fiumetorto,37.966939,13.774781,19310101,19150101,19310101,window_1915_1931,
ITHS01112,Fiumicino Aeroporto,41.793673,12.251728,19000101,19000101,19000101,exact,
ITHS01113,Fivizzano-Gassano,44.202672,10.091691,18990101,18860101,18990101,window_1886_1899,
ITHS01114,Flecchia,45.6711563,8.1933214,19090101,19090101,19090101,exact,
ITHS01115,Foggia,41.466,15.555816,18760101,,18760101,open_by_1876,
ITHS01116,Fogliano,42.7322950,13.0456218,18850101,18770101,18850101,window_1877_1885,
ITHS01117,Fognano,44.20333876312,11.727676716105,18990101,18860101,18990101,window_1886_1899,
ITHS01118,Foligno,42.954261,12.711096,18760101,,18760101,open_by_1876,
ITHS01119,Follonica,42.926687,10.755775,18760101,,18760101,open_by_1876,
ITHS01120,Fondi Sperlonga,41.337663,13.424893,18990101,18860101,18990101,window_1886_1899,
ITHS01121,Fontana Liri,41.618254169437,13.561839341973,19070101,19070101,19070101,exact,
ITHS01122,Fontanafredda,45.967555,12.575266,19120101,19120101,19120101,exact,
ITHS01124,Fontanetto Po,45.191238,8.188697,18990101,18860101,18990101,window_1886_1899,
ITHS01125,Fontaniva,45.634723,11.749038,18760101,,18760101,open_by_1876,
ITHS01127,Fontebuona,43.91751,11.265553,19100101,19100101,19100101,exact,
ITHS01128,Fontecchio,42.222822,13.604445,18760101,,18760101,open_by_1876,
ITHS01129,Forenza,40.866839,15.725331,18990101,18860101,18990101,window_1886_1899,
ITHS01130,Forlì,44.22413,12.054871,18760101,,18760101,open_by_1876,
ITHS01131,Forli,44.22413,12.054871,18990101,18860101,18990101,window_1886_1899,
ITHS01132,Forlimpopoli,44.1873049,12.1259056,18760101,,18760101,open_by_1876,
ITHS01133,Formia Gaeta,41.258773,13.605996,18990101,18860101,18990101,window_1886_1899,
ITHS01134,Formigine,0.0,4.5112561156128,18990101,18860101,18990101,window_1886_1899,
ITHS01135,Formigne,0.0,4.5112561156128,18850101,18770101,18850101,window_1877_1885,
ITHS01136,Fornello,45.0153956,9.3846640,18990101,18860101,18990101,window_1886_1899,
ITHS01137,Forno d'Allione,46.090030277047,10.314949624741,19100101,19100101,19100101,exact,
ITHS01138,Fornovo,44.693791,10.102014,18850101,18770101,18850101,window_1877_1885,
ITHS01139,Fosdondo,44.7741228,10.7326184,18990101,18860101,18990101,window_1886_1899,
ITHS01140,Fossacesia,42.235097,14.524255,18760101,,18760101,open_by_1876,
ITHS01141,Fossalta,45.5766678,12.0036100,18990101,18860101,18990101,window_1886_1899,
ITHS01142,Fossano,44.550231,7.717971,18760101,,18760101,open_by_1876,
ITHS01143,Fossato di Vico Gubbio,43.283798,12.757258,18990101,18860101,18990101,window_1886_1899,
ITHS01144,Fossombrone,43.6578748,12.8038225,18990101,18860101,18990101,window_1886_1899,
ITHS01145,Fragneto,41.4774954,14.5275267,18850101,18770101,18850101,window_1877_1885,
ITHS01146,Framura,44.201903,9.555169,18760101,,18760101,open_by_1876,
ITHS01147,Francavilla a mare,42.421316,14.288062,18760101,,18760101,open_by_1876,
ITHS01148,Francavilla Angitola,38.7799264,16.2728427,18990101,18860101,18990101,window_1886_1899,
ITHS01149,Francavilla Fontana,40.523145,17.584714,18990101,18860101,18990101,window_1886_1899,
ITHS01150,Francofonte,37.2307167,14.8802768,19130101,19130101,19130101,exact,
ITHS01151,Franzensfeste Fortezza,46.7972588,11.5557984,18990101,18860101,18990101,window_1886_1899,
ITHS01153,Frascati,41.806881,12.677962,18760101,,18760101,open_by_1876,
ITHS01154,Frassineto,46.5641532,11.2654924,18990101,18860101,18990101,window_1886_1899,
ITHS01155,Frasso Dugenta,41.1371791,14.4594924,18850101,18770101,18850101,window_1877_1885,
ITHS01156,Fratta,45.038673,11.642598,18760101,,18760101,open_by_1876,
ITHS01158,Fratta Polesine,45.0236959,11.6423388,18850101,18770101,18850101,window_1877_1885,
ITHS01159,Frattarolo,41.58364,15.861727,19050101,19050101,19050101,exact,
ITHS01160,Fratte di Salerno,40.6993059,14.7755075,18990101,18860101,18990101,window_1886_1899,
ITHS01163,Fresonara,44.7810956,8.6908758,19110101,19110101,19110101,exact,
ITHS01164,Frontone,43.5133959,12.7350290,18990101,18860101,18990101,window_1886_1899,
ITHS01165,Frosinone,41.625333,13.328728,18760101,,18760101,open_by_1876,
ITHS01166,Frugarolo,44.8371510,8.6815480,18760101,,18760101,open_by_1876,
ITHS01167,Frugarolo Bosco Marengo,44.841687,8.682724,19310101,19150101,19310101,window_1915_1931,
ITHS01168,Fuorigrotta,40.8279208,14.2017898,18990101,18860101,18990101,window_1886_1899,
ITHS01170,Furci,37.961714,15.380022,18990101,18860101,18990101,window_1886_1899,
ITHS01171,Fuscaldo,39.409692,16.011475,18990101,18860101,18990101,window_1886_1899,
ITHS01172,Gaeta,41.2183120,13.5628100,18990101,18860101,18990101,window_1886_1899,
ITHS01173,Gaggiano,45.408827,9.031117,18760101,,18760101,open_by_1876,
ITHS01174,Gaggio,45.551893,12.326027,18850101,18770101,18850101,window_1877_1885,
ITHS01175,Gagliano Leuca,39.8505351,18.3594873,19030101,19030101,19030101,exact,
ITHS01176,Gagliole,43.220298,13.07522,18990101,18860101,18990101,window_1886_1899,
ITHS01177,Gaifana,43.181837,12.784148,19100101,19100101,19100101,exact,
ITHS01178,Gaiofana,43.181837,12.784148,19100101,19100101,19100101,exact,
ITHS01179,Gairo Taquisara,39.8576087,9.4655292,18990101,18860101,18990101,window_1886_1899,
ITHS01180,Galati,38.104511,15.505313,18760101,,18760101,open_by_1876,
ITHS01181,Galatina,0.0,4.5112561156128,18850101,18770101,18850101,window_1877_1885,
ITHS01182,Galatone,0.0,4.5112561156128,18850101,18770101,18850101,window_1877_1885,
ITHS01184,Galdo,40.569272,15.355627,18990101,18860101,18990101,window_1886_1899,
ITHS01185,Gallarate,45.659828,8.798243,18760101,,18760101,open_by_1876,
ITHS01187,Gallese,42.3732869,12.4028042,18760101,,18760101,open_by_1876,
ITHS01188,Galliate,45.481170972975,8.6912971714431,18990101,18860101,18990101,window_1886_1899,
ITHS01189,Gallico,38.1665020,15.6460698,18850101,18770101,18850101,window_1877_1885,
ITHS01190,Galliera,44.737738,11.441551,18760101,,18760101,open_by_1876,
ITHS01191,Gallipoli,0.0,4.5112561156128,18990101,18860101,18990101,window_1886_1899,
ITHS01192,Galugnano,0.0,4.5112561156128,18760101,,18760101,open_by_1876,
ITHS01193,Gamalero,44.817476,8.543427,18760101,,18760101,open_by_1876,
ITHS01194,Gamaliero,44.817476,8.543427,18850101,18770101,18850101,window_1877_1885,
ITHS01195,Gambatesa,41.5098892,14.9120522,19140101,19140101,19140101,exact,
ITHS01196,Gambettola,44.116718,12.327555,18760101,,18760101,open_by_1876,
ITHS01197,Gambolò-Remondò,45.23587,8.79757,18990101,18860101,18990101,window_1886_1899,
ITHS01198,Garbagna Novarese,45.3925984,8.6562586,18990101,18860101,18990101,window_1886_1899,
ITHS01199,Garbagnate milanese,45.580004805934,9.0802526897463,18990101,18860101,18990101,window_1886_1899,
ITHS01200,Garessio,44.199088,8.015214,18990101,18860101,18990101,window_1886_1899,
ITHS01201,Garlasco,45.198948,8.926829,18850101,18770101,18850101,window_1877_1885,
ITHS01202,Gattinara,45.611523,8.364288,19050101,19050101,19050101,exact,
ITHS01203,Gavardo,45.5846274,10.4382370,18990101,18860101,18990101,window_1886_1899,
ITHS01204,Gavirate,45.845605836111,8.7148648541219,18990101,18860101,18990101,window_1886_1899,
ITHS01205,Gavorrano,42.947959,10.9338,18760101,,18760101,open_by_1876,
ITHS01206,Gazzada,45.7779855,8.8226705,18760101,,18760101,open_by_1876,
ITHS01208,Gazzaniga,45.7966425,9.8349553,18990101,18860101,18990101,window_1886_1899,
ITHS01209,Gazzo di Bigarello,45.176648,10.894005,18990101,18860101,18990101,window_1886_1899,
ITHS01210,Gazzo Pieve S.Giacomo,45.137151,10.189922,18760101,,18760101,open_by_1876,
ITHS01211,Gazzo Pieve San Giacomo,45.137151,10.189922,18850101,18770101,18850101,window_1877_1885,
ITHS01212,Gela,37.07283,14.259461,19310101,19150101,19310101,window_1915_1931,
ITHS01213,Gemona del Friuli,46.274243,13.127978,18850101,18770101,18850101,window_1877_1885,
ITHS01215,Gemonio,45.877826133268,8.6738380297071,18990101,18860101,18990101,window_1886_1899,
ITHS01216,Genola,44.5887991,7.6675336,18850101,18770101,18850101,window_1877_1885,
ITHS01217,Genova,44.4072600,8.9338624,18760101,,18760101,open_by_1876,
ITHS01218,Genova Borzoli,44.434704,8.866648,18990101,18860101,18990101,window_1886_1899,
ITHS01219,Genova Brignole,44.407213,8.947553,18990101,18860101,18990101,window_1886_1899,
ITHS01220,Genova Piazza Principe,44.417784,8.9207,18990101,18860101,18990101,window_1886_1899,
ITHS01221,Genova Quinto al Mare,44.385184,9.020514,18990101,18860101,18990101,window_1886_1899,
ITHS01222,Genova Sampierdarenza,44.413102,8.887271,19310101,19150101,19310101,window_1915_1931,
ITHS01223,Gerace,38.2729597,16.2187558,18760101,,18760101,open_by_1876,
ITHS01224,Gerbini,37.473138,14.845822,18760101,,18760101,open_by_1876,
ITHS01225,Gerenzano,45.6387230,9.0003063,18990101,18860101,18990101,window_1886_1899,
ITHS01226,Gerolomini,40.8206486,14.1351517,18990101,18860101,18990101,window_1886_1899,
ITHS01227,Gesico,39.6163372,9.1064572,18990101,18860101,18990101,window_1886_1899,
ITHS01228,Gesso,38.2342684,15.4703085,18990101,18860101,18990101,window_1886_1899,
ITHS01229,Ghedi,45.409439,10.280506,18990101,18860101,18990101,window_1886_1899,
ITHS01230,Ghemme,45.595882,8.417135,18850101,18770101,18850101,window_1877_1885,
ITHS01232,Ghirla,45.9251778,8.8216389,19060101,19060101,19060101,exact,
ITHS01233,Giaconia,37.5572115,14.9183151,18990101,18860101,18990101,window_1886_1899,
ITHS01234,Giampilieri,38.080121,15.493863,18760101,,18760101,open_by_1876,
ITHS01235,Giardini Taormina,37.8453997,15.2827301,18760101,,18760101,open_by_1876,
ITHS01236,Giarole,45.056125,8.5609,18760101,,18760101,open_by_1876,
ITHS01237,Giarre Riposto,37.730346,15.193386,18760101,,18760101,open_by_1876,
ITHS01238,Giave,40.455875,8.729388,18850101,18770101,18850101,window_1877_1885,
ITHS01239,Gibellina,37.8071838,12.9618819,18850101,18770101,18850101,window_1877_1885,
ITHS01240,Gignese,45.8607690,8.5096707,19120101,19120101,19120101,exact,
ITHS01241,Ginosa,40.429201,16.890968,18760101,,18760101,open_by_1876,
ITHS01242,Gioia,38.4239740,15.8989950,18760101,,18760101,open_by_1876,
ITHS01243,Gioia del Colle,40.796983,16.916569,18990101,18860101,18990101,window_1886_1899,
ITHS01244,Gioia Tauro,38.423436,15.897516,18990101,18860101,18990101,window_1886_1899,
ITHS01245,Gioiosa Jonica,38.300812,16.332501,18990101,18860101,18990101,window_1886_1899,
ITHS01246,Giojosa Marea,38.175149,14.894794,18990101,18860101,18990101,window_1886_1899,
ITHS01247,Giovi,-9.019375697908,4.5112471566161,18990101,18860101,18990101,window_1886_1899,
ITHS01248,Giovinazzo,41.180968,16.669346,18760101,,18760101,open_by_1876,
ITHS01249,Girgenti,37.3122991,13.5746500,18760101,,18760101,open_by_1876,
ITHS01250,Giugliano,40.9283217,14.2011232,19040101,19040101,19040101,exact,
ITHS01251,Giulianova,42.751673,13.965743,18760101,,18760101,open_by_1876,
ITHS01252,Giuncano,42.647802,12.637694,18850101,18770101,18850101,window_1877_1885,
ITHS01253,Giuncarico,42.915473,11.008362,18990101,18860101,18990101,window_1886_1899,
ITHS01254,Giurdignano,0.0,4.5112561156128,18760101,,18760101,open_by_1876,
ITHS01255,Glorie,44.483341,12.075736,18990101,18860101,18990101,window_1886_1899,
ITHS01256,Godo,44.389322,12.071256,18760101,,18760101,open_by_1876,
ITHS01257,Godrano,37.9032009,13.4281157,18990101,18860101,18990101,window_1886_1899,
ITHS01258,Golasecca,45.6968994,8.6556495,19130101,19130101,19130101,exact,
ITHS01259,Golfo Aranci,40.997261,9.62471,18850101,18770101,18850101,window_1877_1885,
ITHS01260,Gonnesa,39.2666261,8.4717404,18990101,18860101,18990101,window_1886_1899,
ITHS01261,Gonzaga,44.9524875,10.8226230,18850101,18770101,18850101,window_1877_1885,
ITHS01262,Gorgo al Monticiano,45.784444,12.553737,18850101,18770101,18850101,window_1877_1885,
ITHS01264,Goriano-Sicoli,42.082698,13.78286,18990101,18860101,18990101,window_1886_1899,
ITHS01265,Gorizia,45.933047,13.60684,18760101,,18760101,open_by_1876,
ITHS01266,Gorizia Centrale,45.933047,13.60684,18990101,18860101,18990101,window_1886_1899,
ITHS01267,Gorlago,45.6767028,9.8270544,18760101,,18760101,open_by_1876,
ITHS01268,Gozzano,45.741039,8.438726,18760101,,18760101,open_by_1876,
ITHS01270,Gragnano,40.688964,14.520445,18990101,18860101,18990101,window_1886_1899,
ITHS01271,Gragnone,43.4190247,11.9021667,18990101,18860101,18990101,window_1886_1899,
ITHS01272,Grammmichele,37.209336,14.641256,18990101,18860101,18990101,window_1886_1899,
ITHS01273,Granaiolo,43.652244,10.945223,18990101,18860101,18990101,window_1886_1899,
ITHS01274,Granarolo Faentino,44.357356,11.937441,18990101,18860101,18990101,window_1886_1899,
ITHS01275,Grandate Breccia,45.781296376407,9.055790807448,18990101,18860101,18990101,window_1886_1899,
ITHS01276,Grandola,46.0508634,9.1898920,19030101,19030101,19030101,exact,
ITHS01277,Granica,42.2334728,12.7059100,18990101,18770101,18990101,window_1877_1899,
ITHS01278,Grassano-Garuso-Tricarico,40.593317,16.241049,18990101,18860101,18990101,window_1886_1899,
ITHS01280,Gravellona Toce,45.934051,8.428346,18990101,18860101,18990101,window_1886_1899,
ITHS01281,Gravina,37.5603691,15.0617632,18990101,18860101,18990101,window_1886_1899,
ITHS01283,Greccio,42.462872,12.777009,18850101,18770101,18850101,window_1877_1885,
ITHS01284,Gressa,43.7303687,11.8446445,18850101,18770101,18850101,window_1877_1885,
ITHS01285,Grignano,45.713308,13.710255,18760101,,18760101,open_by_1876,
ITHS01286,Grignasco,45.683288,8.332913,18850101,18770101,18850101,window_1877_1885,
ITHS01287,Grigno,46.015059,11.624984,18990101,18860101,18990101,window_1886_1899,
ITHS01288,Grisolia S.Maria,39.739731,15.821072,18990101,,18990101,open_by_1899,
ITHS01291,Groppello Cairoli,45.173101,8.991626,18990101,18860101,18990101,window_1886_1899,
ITHS01292,Grosseto,42.76728,11.1065,18760101,,18760101,open_by_1876,
ITHS01293,Grottaferrata,41.7886160,12.6667408,19060101,19060101,19060101,exact,
ITHS01294,Grottaglie,40.528989,17.424503,18990101,18860101,18990101,window_1886_1899,
ITHS01295,Grottamare,42.99381,13.870265,18760101,,18760101,open_by_1876,
ITHS01296,Grottazzolina,43.1117111,13.6029809,19100101,19100101,19100101,exact,
ITHS01297,Grotte,37.409848,13.702717,18850101,18770101,18850101,window_1877_1885,
ITHS01298,Grotte S.Stefano,42.51512,12.169372,18990101,18860101,18990101,window_1886_1899,
ITHS01299,Grumello,46.0669314,10.2559755,18760101,,18760101,open_by_1876,
ITHS01300,Grumello del Monte,45.634102,9.862767,18850101,18770101,18850101,window_1877_1885,
ITHS01301,Grumo,46.1955926,11.1291671,18760101,,18760101,open_by_1876,
ITHS01302,Grumo Appula,41.01199,16.718777,18850101,18770101,18850101,window_1877_1885,
ITHS01303,Guagnano,0.0,4.5112561156128,19050101,19050101,19050101,exact,
ITHS01304,Gualdo Tadino,43.233475,12.7672,18760101,,18760101,open_by_1876,
ITHS01305,Gualtieri,0.0,4.5112561156128,18850101,18770101,18850101,window_1877_1885,
ITHS01306,Guardavalle,38.480266,16.578923,18990101,18860101,18990101,window_1886_1899,
ITHS01307,Guardia Mangano,37.6618733,15.1692474,19080101,19080101,19080101,exact,
ITHS01308,Guardia Piemontese,39.464259,15.979237,18990101,18860101,18990101,window_1886_1899,
ITHS01309,Guardiagrele,42.1954758,14.2197122,18990101,18860101,18990101,window_1886_1899,
ITHS01310,Guardiaregia,41.457455,14.553753,18990101,18860101,18990101,window_1886_1899,
ITHS01311,Guastalla,0.0,4.5112561156128,18850101,18770101,18850101,window_1877_1885,
ITHS01312,Gubbio,43.3517605,12.5772959,18990101,18860101,18990101,window_1886_1899,
ITHS01313,Guglionesi,41.9138877,14.9136133,18850101,18770101,18850101,window_1877_1885,
ITHS01315,Iglesias,39.310563,8.539786,18760101,,18760101,open_by_1876,
ITHS01316,Illorai,40.3538580,9.0010270,18990101,18860101,18990101,window_1886_1899,
ITHS01317,Imera,37.533814,14.125165,18760101,,18760101,open_by_1876,
ITHS01318,Imola,44.359418,11.718723,18760101,,18760101,open_by_1876,
ITHS01319,Imperia,43.88051,8.019182,19310101,19150101,19310101,window_1915_1931,
ITHS01321,Incisa,43.656541,11.452728,18760101,,18760101,open_by_1876,
ITHS01322,Incisa Scapaccino,44.80052,8.388468,18850101,18770101,18850101,window_1877_1885,
ITHS01323,Incoronata,41.408174,15.650728,19020101,19020101,19020101,exact,
ITHS01324,Indicatore,43.480067,11.803468,18990101,18860101,18990101,window_1886_1899,
ITHS01325,Induno Olona,45.846432,8.838357,18990101,18860101,18990101,window_1886_1899,
ITHS01327,Inverigo,45.740316381307,9.2243882142346,18990101,18860101,18990101,window_1886_1899,
ITHS01328,Irsina,40.7444119,16.2427058,19080101,19080101,19080101,exact,
ITHS01329,Iselle di Trasquera,46.2070874,8.2070479,19100101,19100101,19100101,exact,
ITHS01330,Iseo,45.656492591532,10.050276162922,18990101,18860101,18990101,window_1886_1899,
ITHS01331,Isernia,41.596946,14.235421,18990101,18860101,18990101,window_1886_1899,
ITHS01332,Isili,39.7404048,9.1085903,18990101,18860101,18990101,window_1886_1899,
ITHS01333,Isola Capo Rizzuto,38.9599930,17.0933150,18760101,,18760101,open_by_1876,
ITHS01334,Isola d'Asti,44.830605,8.175113,18760101,,18760101,open_by_1876,
ITHS01335,Isola del Cantone,44.646589,8.957578,18760101,,18760101,open_by_1876,
